[{"title":"Beer - Fruli","description":"Quisque arcu libero, rutrum ac, lobortis vel, dapibus at, diam.","imageUrl":"http://dummyimage.com/300x300.png/ff4444/ffffff","latitude":31.9703701,"longitude":120.6442839,"quantity":1,"location":"79 Boyd Lane"},
{"title":"Chicken - Wieners","description":"Vivamus metus arcu, adipiscing molestie, hendrerit at, vulputate vitae, nisl. Aenean lectus. Pellentesque eget nunc.","imageUrl":"http://dummyimage.com/300x300.png/cc0000/ffffff","latitude":-0.4836064,"longitude":117.1544163,"quantity":2,"location":"93 Lake View Junction"},
{"title":"Cookie Dough - Oatmeal Rasin","description":"Donec diam neque, vestibulum eget, vulputate ut, ultrices vel, augue. Vestibulum ante ipsum primis in faucibus orci luctus et ultrices posuere cubilia Curae; Donec pharetra, magna vestibulum aliquet ultrices, erat tortor sollicitudin mi, sit amet lobortis sapien sapien non mi. Integer ac neque.","imageUrl":"http://dummyimage.com/300x300.png/dddddd/000000","latitude":41.167279,"longitude":-8.3704583,"quantity":3,"location":"07823 Di Loreto Road"},
{"title":"Muffin Carrot - Individual","description":"Morbi vestibulum, velit id pretium iaculis, diam erat fermentum justo, nec condimentum neque sapien placerat ante.","imageUrl":"http://dummyimage.com/300x300.png/5fa2dd/ffffff","latitude":52.9918299,"longitude":43.6510502,"quantity":4,"location":"08 Sundown Alley"},
{"title":"Rice Pilaf, Dry,package","description":"Duis bibendum, felis sed interdum venenatis, turpis enim blandit mi, in porttitor pede justo eu massa.","imageUrl":"http://dummyimage.com/300x300.png/5fa2dd/ffffff","latitude":41.565627,"longitude":120.453743,"quantity":5,"location":"4077 Claremont Park"},
{"title":"Pepper - Red Thai","description":"Nam dui.","imageUrl":"http://dummyimage.com/300x300.png/ff4444/ffffff","latitude":17.9567646,"longitude":-102.1943485,"quantity":6,"location":"046 Hoard Park"},
{"title":"Anisette - Mcguiness","description":"Pellentesque eget nunc. Donec quis orci eget orci vehicula condimentum. Curabitur in libero ut massa volutpat convallis.","imageUrl":"http://dummyimage.com/300x300.png/5fa2dd/ffffff","latitude":28.229271,"longitude":120.997332,"quantity":7,"location":"97 Jackson Hill"},
{"title":"Nut - Hazelnut, Ground, Natural","description":"Duis ac nibh. Fusce lacus purus, aliquet at, feugiat non, pretium quis, lectus. Suspendisse potenti.","imageUrl":"http://dummyimage.com/300x300.png/ff4444/ffffff","latitude":55.5146696,"longitude":35.8272389,"quantity":8,"location":"60327 Bowman Circle"},
{"title":"Soup Campbells Beef With Veg","description":"Etiam vel augue.","imageUrl":"http://dummyimage.com/300x300.png/cc0000/ffffff","latitude":-7.1186612,"longitude":112.4716488,"quantity":9,"location":"3814 Coleman Street"},
{"title":"Squid - Tubes / Tenticles 10/20","description":"Suspendisse accumsan tortor quis turpis. Sed ante.","imageUrl":"http://dummyimage.com/300x300.png/cc0000/ffffff","latitude":-4.6,"longitude":34.35,"quantity":10,"location":"3 Boyd Trail"},
{"title":"Coffee Caramel Biscotti","description":"Duis bibendum. Morbi non quam nec dui luctus rutrum.","imageUrl":"http://dummyimage.com/300x300.png/5fa2dd/ffffff","latitude":30.603546,"longitude":121.095594,"quantity":11,"location":"5185 Little Fleur Avenue"},
{"title":"Salmon - Smoked, Sliced","description":"Maecenas leo odio, condimentum id, luctus nec, molestie sed, justo. Pellentesque viverra pede ac diam. Cras pellentesque volutpat dui.","imageUrl":"http://dummyimage.com/300x300.png/cc0000/ffffff","latitude":58.263232,"longitude":54.9326774,"quantity":12,"location":"1949 Park Meadow Lane"},
{"title":"Cranberry Foccacia","description":"Nulla facilisi. Cras non velit nec nisi vulputate nonummy. Maecenas tincidunt lacus at velit.","imageUrl":"http://dummyimage.com/300x300.png/cc0000/ffffff","latitude":9.823961,"longitude":-84.927454,"quantity":13,"location":"41 Melvin Parkway"},
{"title":"Cake - Mini Cheesecake","description":"Mauris lacinia sapien quis libero. Nullam sit amet turpis elementum ligula vehicula consequat.","imageUrl":"http://dummyimage.com/300x300.png/dddddd/000000","latitude":20.9455701,"longitude":-101.4423451,"quantity":14,"location":"31 Westerfield Way"},
{"title":"Flavouring Vanilla Artificial","description":"Praesent blandit.","imageUrl":"http://dummyimage.com/300x300.png/ff4444/ffffff","latitude":22.2092,"longitude":113.296467,"quantity":15,"location":"177 Mcguire Lane"},
{"title":"Pasta - Fusili, Dry","description":"Vestibulum ac est lacinia nisi venenatis tristique. Fusce congue, diam id ornare imperdiet, sapien urna pretium nisl, ut volutpat sapien arcu sed augue. Aliquam erat volutpat.","imageUrl":"http://dummyimage.com/300x300.png/ff4444/ffffff","latitude":38.93,"longitude":-77.4,"quantity":16,"location":"3028 Golden Leaf Crossing"},
{"title":"Island Oasis - Magarita Mix","description":"Morbi porttitor lorem id ligula. Suspendisse ornare consequat lectus. In est risus, auctor sed, tristique in, tempus sit amet, sem.","imageUrl":"http://dummyimage.com/300x300.png/dddddd/000000","latitude":27.42839,"longitude":85.03219,"quantity":17,"location":"6 Spenser Point"},
{"title":"Monkfish - Fresh","description":"Maecenas tristique, est et tempus semper, est quam pharetra magna, ac consequat metus sapien ut nunc. Vestibulum ante ipsum primis in faucibus orci luctus et ultrices posuere cubilia Curae; Mauris viverra diam vitae quam.","imageUrl":"http://dummyimage.com/300x300.png/ff4444/ffffff","latitude":39.0392193,"longitude":125.7625241,"quantity":18,"location":"7602 Sutherland Place"},
{"title":"Brocolinni - Gaylan, Chinese","description":"Duis mattis egestas metus.","imageUrl":"http://dummyimage.com/300x300.png/dddddd/000000","latitude":49.0026196,"longitude":132.4671327,"quantity":19,"location":"25933 Commercial Street"},
{"title":"Nantucket - Carrot Orange","description":"Integer ac leo.","imageUrl":"http://dummyimage.com/300x300.png/ff4444/ffffff","latitude":49.7266869,"longitude":20.9961868,"quantity":20,"location":"00 South Pass"},
{"title":"Wine - Montecillo Rioja Crianza","description":"Etiam pretium iaculis justo. In hac habitasse platea dictumst. Etiam faucibus cursus urna.","imageUrl":"http://dummyimage.com/300x300.png/dddddd/000000","latitude":14.6632212,"longitude":-90.6132158,"quantity":21,"location":"0 Talmadge Lane"},
{"title":"Apples - Sliced / Wedge","description":"In eleifend quam a odio.","imageUrl":"http://dummyimage.com/300x300.png/dddddd/000000","latitude":34.9556581,"longitude":135.272163,"quantity":22,"location":"988 Londonderry Crossing"},
{"title":"Easy Off Oven Cleaner","description":"Morbi porttitor lorem id ligula. Suspendisse ornare consequat lectus.","imageUrl":"http://dummyimage.com/300x300.png/5fa2dd/ffffff","latitude":49.8417042,"longitude":5.1214901,"quantity":23,"location":"1658 Trailsway Hill"},
{"title":"Split Peas - Green, Dry","description":"Duis consequat dui nec nisi volutpat eleifend. Donec ut dolor.","imageUrl":"http://dummyimage.com/300x300.png/5fa2dd/ffffff","latitude":-7.042646,"longitude":110.894036,"quantity":24,"location":"961 Paget Circle"},
{"title":"Marjoram - Dried, Rubbed","description":"Cras non velit nec nisi vulputate nonummy. Maecenas tincidunt lacus at velit.","imageUrl":"http://dummyimage.com/300x300.png/dddddd/000000","latitude":31.7338222,"longitude":118.8719394,"quantity":25,"location":"351 Garrison Crossing"},
{"title":"Icecream - Dstk Cml And Fdg","description":"Proin eu mi.","imageUrl":"http://dummyimage.com/300x300.png/ff4444/ffffff","latitude":-8.3724396,"longitude":123.4887939,"quantity":26,"location":"9850 Dottie Circle"},
{"title":"Chicken - Thigh, Bone In","description":"Duis ac nibh. Fusce lacus purus, aliquet at, feugiat non, pretium quis, lectus. Suspendisse potenti.","imageUrl":"http://dummyimage.com/300x300.png/dddddd/000000","latitude":22.64879,"longitude":114.197173,"quantity":27,"location":"91781 Donald Place"},
{"title":"Cream - 10%","description":"Pellentesque at nulla. Suspendisse potenti.","imageUrl":"http://dummyimage.com/300x300.png/5fa2dd/ffffff","latitude":39.856276,"longitude":-8.78126,"quantity":28,"location":"35 Columbus Parkway"},
{"title":"Mayonnaise","description":"Maecenas tincidunt lacus at velit. Vivamus vel nulla eget eros elementum pellentesque.","imageUrl":"http://dummyimage.com/300x300.png/5fa2dd/ffffff","latitude":30.69,"longitude":-88.06,"quantity":29,"location":"375 Sugar Lane"},
{"title":"Snapple - Iced Tea Peach","description":"Nullam orci pede, venenatis non, sodales sed, tincidunt eu, felis.","imageUrl":"http://dummyimage.com/300x300.png/ff4444/ffffff","latitude":25.702973,"longitude":118.368684,"quantity":30,"location":"32 Rockefeller Pass"},
{"title":"Myers Planters Punch","description":"Ut at dolor quis odio consequat varius. Integer ac leo.","imageUrl":"http://dummyimage.com/300x300.png/5fa2dd/ffffff","latitude":59.4310564,"longitude":26.2664249,"quantity":31,"location":"3 Blackbird Trail"},
{"title":"Sprouts - Brussel","description":"Praesent id massa id nisl venenatis lacinia. Aenean sit amet justo. Morbi ut odio.","imageUrl":"http://dummyimage.com/300x300.png/5fa2dd/ffffff","latitude":-6.3123461,"longitude":106.4965434,"quantity":32,"location":"15434 American Ash Junction"},
{"title":"Bread - Bistro Sour","description":"Phasellus sit amet erat.","imageUrl":"http://dummyimage.com/300x300.png/cc0000/ffffff","latitude":60.5770445,"longitude":16.5120356,"quantity":33,"location":"94 Buena Vista Drive"},
{"title":"External Supplier","description":"Vivamus tortor. Duis mattis egestas metus.","imageUrl":"http://dummyimage.com/300x300.png/dddddd/000000","latitude":-27.8157141,"longitude":-50.3263964,"quantity":34,"location":"03732 Basil Hill"},
{"title":"Bananas","description":"Curabitur convallis. Duis consequat dui nec nisi volutpat eleifend. Donec ut dolor.","imageUrl":"http://dummyimage.com/300x300.png/ff4444/ffffff","latitude":23.681774,"longitude":113.056042,"quantity":35,"location":"884 Drewry Court"},
{"title":"Carbonated Water - Strawberry","description":"Quisque ut erat. Curabitur gravida nisi at nibh. In hac habitasse platea dictumst.","imageUrl":"http://dummyimage.com/300x300.png/ff4444/ffffff","latitude":27.44587,"longitude":118.679751,"quantity":36,"location":"5 Iowa Hill"},
{"title":"Lamb - Racks, Frenched","description":"Ut tellus. Nulla ut erat id mauris vulputate elementum. Nullam varius.","imageUrl":"http://dummyimage.com/300x300.png/dddddd/000000","latitude":-14.0648657,"longitude":-42.4858867,"quantity":37,"location":"65 Arapahoe Terrace"},
{"title":"Longos - Grilled Chicken With","description":"Cras in purus eu magna vulputate luctus.","imageUrl":"http://dummyimage.com/300x300.png/5fa2dd/ffffff","latitude":58.5336853,"longitude":59.0754123,"quantity":38,"location":"33578 Coleman Terrace"},
{"title":"Tomatoes - Cherry","description":"Vestibulum ante ipsum primis in faucibus orci luctus et ultrices posuere cubilia Curae; Nulla dapibus dolor vel est.","imageUrl":"http://dummyimage.com/300x300.png/ff4444/ffffff","latitude":43.1729478,"longitude":16.4411136,"quantity":39,"location":"925 Fair Oaks Street"},
{"title":"Sauce - Alfredo","description":"Fusce congue, diam id ornare imperdiet, sapien urna pretium nisl, ut volutpat sapien arcu sed augue. Aliquam erat volutpat. In congue.","imageUrl":"http://dummyimage.com/300x300.png/dddddd/000000","latitude":58.1456847,"longitude":12.1337569,"quantity":40,"location":"0536 Center Plaza"},
{"title":"Bread - Sour Sticks With Onion","description":"Morbi sem mauris, laoreet ut, rhoncus aliquet, pulvinar sed, nisl. Nunc rhoncus dui vel sem.","imageUrl":"http://dummyimage.com/300x300.png/ff4444/ffffff","latitude":10.4818973,"longitude":124.0211737,"quantity":41,"location":"9648 Mesta Drive"},
{"title":"Spice - Peppercorn Melange","description":"Cras non velit nec nisi vulputate nonummy. Maecenas tincidunt lacus at velit. Vivamus vel nulla eget eros elementum pellentesque.","imageUrl":"http://dummyimage.com/300x300.png/5fa2dd/ffffff","latitude":22.6274369,"longitude":114.0604907,"quantity":42,"location":"05103 Hermina Park"},
{"title":"Pop - Club Soda Can","description":"Morbi sem mauris, laoreet ut, rhoncus aliquet, pulvinar sed, nisl. Nunc rhoncus dui vel sem.","imageUrl":"http://dummyimage.com/300x300.png/cc0000/ffffff","latitude":41.4112348,"longitude":-7.9526065,"quantity":43,"location":"29 Waubesa Plaza"},
{"title":"Sobe - Lizard Fuel","description":"Donec posuere metus vitae ipsum. Aliquam non mauris. Morbi non lectus.","imageUrl":"http://dummyimage.com/300x300.png/cc0000/ffffff","latitude":32.491488,"longitude":80.096419,"quantity":44,"location":"2404 Corscot Circle"},
{"title":"Mangoes","description":"Nulla tempus.","imageUrl":"http://dummyimage.com/300x300.png/ff4444/ffffff","latitude":32.3855324,"longitude":-86.2514126,"quantity":45,"location":"2 Northridge Circle"},
{"title":"Wine - Fontanafredda Barolo","description":"Duis consequat dui nec nisi volutpat eleifend. Donec ut dolor.","imageUrl":"http://dummyimage.com/300x300.png/dddddd/000000","latitude":51.2409432,"longitude":33.2050521,"quantity":46,"location":"935 Barby Trail"},
{"title":"Carrots - Jumbo","description":"Proin risus.","imageUrl":"http://dummyimage.com/300x300.png/cc0000/ffffff","latitude":-6.9758,"longitude":113.8009,"quantity":47,"location":"425 Cambridge Alley"},
{"title":"Beef - Rouladin, Sliced","description":"Morbi vestibulum, velit id pretium iaculis, diam erat fermentum justo, nec condimentum neque sapien placerat ante.","imageUrl":"http://dummyimage.com/300x300.png/dddddd/000000","latitude":56.9496487,"longitude":24.1051865,"quantity":48,"location":"512 Meadow Ridge Pass"},
{"title":"Soup - Campbells Broccoli","description":"Etiam justo. Etiam pretium iaculis justo.","imageUrl":"http://dummyimage.com/300x300.png/5fa2dd/ffffff","latitude":1.1607823,"longitude":34.2866091,"quantity":49,"location":"465 Arapahoe Crossing"},
{"title":"Island Oasis - Magarita Mix","description":"Suspendisse potenti. Cras in purus eu magna vulputate luctus.","imageUrl":"http://dummyimage.com/300x300.png/cc0000/ffffff","latitude":26.2778269,"longitude":-80.109357,"quantity":50,"location":"8433 Raven Pass"},
{"title":"Bagel - Ched Chs Presliced","description":"Cras pellentesque volutpat dui. Maecenas tristique, est et tempus semper, est quam pharetra magna, ac consequat metus sapien ut nunc.","imageUrl":"http://dummyimage.com/300x300.png/dddddd/000000","latitude":58.3619916,"longitude":11.9203062,"quantity":51,"location":"3 Laurel Terrace"},
{"title":"Pepper - Black, Whole","description":"Suspendisse potenti.","imageUrl":"http://dummyimage.com/300x300.png/ff4444/ffffff","latitude":-29.4169973,"longitude":24.7380385,"quantity":52,"location":"297 Mcbride Terrace"},
{"title":"Ham - Smoked, Bone - In","description":"Donec quis orci eget orci vehicula condimentum. Curabitur in libero ut massa volutpat convallis.","imageUrl":"http://dummyimage.com/300x300.png/dddddd/000000","latitude":-15.6225478,"longitude":-71.9801443,"quantity":53,"location":"866 Arrowood Way"},
{"title":"Chicken Breast Halal","description":"Integer a nibh.","imageUrl":"http://dummyimage.com/300x300.png/5fa2dd/ffffff","latitude":29.402608,"longitude":110.443991,"quantity":54,"location":"650 Heffernan Parkway"},
{"title":"Slt - Individual Portions","description":"Proin at turpis a pede posuere nonummy. Integer non velit.","imageUrl":"http://dummyimage.com/300x300.png/ff4444/ffffff","latitude":48.85917,"longitude":27.7969,"quantity":55,"location":"4 Michigan Place"},
{"title":"Cassis","description":"Duis bibendum. Morbi non quam nec dui luctus rutrum. Nulla tellus.","imageUrl":"http://dummyimage.com/300x300.png/dddddd/000000","latitude":48.3611707,"longitude":27.0855305,"quantity":56,"location":"3114 Prairie Rose Way"},
{"title":"Beer - Creemore","description":"In hac habitasse platea dictumst.","imageUrl":"http://dummyimage.com/300x300.png/dddddd/000000","latitude":49.4817883,"longitude":18.0449791,"quantity":57,"location":"4975 Tennyson Center"},
{"title":"Liners - Banana, Paper","description":"Duis aliquam convallis nunc. Proin at turpis a pede posuere nonummy. Integer non velit.","imageUrl":"http://dummyimage.com/300x300.png/5fa2dd/ffffff","latitude":33.38278,"longitude":66.27233,"quantity":58,"location":"8 Fair Oaks Crossing"},
{"title":"Turkey - Ground. Lean","description":"Suspendisse potenti.","imageUrl":"http://dummyimage.com/300x300.png/5fa2dd/ffffff","latitude":32.43155,"longitude":116.514251,"quantity":59,"location":"69656 Glacier Hill Trail"},
{"title":"Lamb - Pieces, Diced","description":"Ut at dolor quis odio consequat varius. Integer ac leo. Pellentesque ultrices mattis odio.","imageUrl":"http://dummyimage.com/300x300.png/cc0000/ffffff","latitude":43.0007361,"longitude":23.341193,"quantity":60,"location":"470 Jay Lane"},
{"title":"Plate Pie Foil","description":"Donec quis orci eget orci vehicula condimentum.","imageUrl":"http://dummyimage.com/300x300.png/dddddd/000000","latitude":41.8210285,"longitude":20.9641822,"quantity":61,"location":"97513 7th Junction"},
{"title":"Shrimp - 150 - 250","description":"In hac habitasse platea dictumst. Maecenas ut massa quis augue luctus tincidunt. Nulla mollis molestie lorem.","imageUrl":"http://dummyimage.com/300x300.png/5fa2dd/ffffff","latitude":-6.0776348,"longitude":105.8936224,"quantity":62,"location":"9711 Dahle Way"},
{"title":"Longos - Chicken Caeser Salad","description":"Maecenas ut massa quis augue luctus tincidunt. Nulla mollis molestie lorem.","imageUrl":"http://dummyimage.com/300x300.png/dddddd/000000","latitude":13.3041159,"longitude":-14.3864656,"quantity":63,"location":"8 Caliangt Alley"},
{"title":"Savory","description":"Etiam pretium iaculis justo.","imageUrl":"http://dummyimage.com/300x300.png/dddddd/000000","latitude":-6.7654544,"longitude":108.1682147,"quantity":64,"location":"6313 Calypso Lane"},
{"title":"Wine - Red, Black Opal Shiraz","description":"Cum sociis natoque penatibus et magnis dis parturient montes, nascetur ridiculus mus. Vivamus vestibulum sagittis sapien. Cum sociis natoque penatibus et magnis dis parturient montes, nascetur ridiculus mus.","imageUrl":"http://dummyimage.com/300x300.png/dddddd/000000","latitude":14.5665378,"longitude":121.1092186,"quantity":65,"location":"94 Gina Parkway"},
{"title":"Pork Loin Bine - In Frenched","description":"Ut tellus. Nulla ut erat id mauris vulputate elementum.","imageUrl":"http://dummyimage.com/300x300.png/dddddd/000000","latitude":32.8094568,"longitude":-96.889555,"quantity":66,"location":"1266 Di Loreto Street"},
{"title":"Capon - Breast, Double, Wing On","description":"Aliquam non mauris.","imageUrl":"http://dummyimage.com/300x300.png/cc0000/ffffff","latitude":53.3604483,"longitude":-6.1942058,"quantity":67,"location":"1794 Larry Road"},
{"title":"Juice - Cranberry 284ml","description":"Vivamus tortor. Duis mattis egestas metus. Aenean fermentum.","imageUrl":"http://dummyimage.com/300x300.png/cc0000/ffffff","latitude":32.830953,"longitude":110.873513,"quantity":68,"location":"9 Burning Wood Hill"},
{"title":"Dr. Pepper - 355ml","description":"Nulla ut erat id mauris vulputate elementum. Nullam varius. Nulla facilisi.","imageUrl":"http://dummyimage.com/300x300.png/cc0000/ffffff","latitude":-8.7334983,"longitude":121.7508912,"quantity":69,"location":"93240 Rowland Center"},
{"title":"Cake Sheet Combo Party Pack","description":"Morbi vestibulum, velit id pretium iaculis, diam erat fermentum justo, nec condimentum neque sapien placerat ante. Nulla justo.","imageUrl":"http://dummyimage.com/300x300.png/5fa2dd/ffffff","latitude":31.7311971,"longitude":117.2313179,"quantity":70,"location":"5 Butternut Center"},
{"title":"Lamb - Racks, Frenched","description":"Quisque arcu libero, rutrum ac, lobortis vel, dapibus at, diam.","imageUrl":"http://dummyimage.com/300x300.png/dddddd/000000","latitude":6.8437702,"longitude":125.2413578,"quantity":71,"location":"96584 Heffernan Hill"},
{"title":"Cake - Box Window 10x10x2.5","description":"Nam nulla.","imageUrl":"http://dummyimage.com/300x300.png/ff4444/ffffff","latitude":51.5649604,"longitude":32.9549585,"quantity":72,"location":"964 Comanche Trail"},
{"title":"Salmon - Atlantic, Skin On","description":"Morbi ut odio. Cras mi pede, malesuada in, imperdiet et, commodo vulputate, justo.","imageUrl":"http://dummyimage.com/300x300.png/5fa2dd/ffffff","latitude":-21.0945791,"longitude":55.2455558,"quantity":73,"location":"497 Dennis Crossing"},
{"title":"Cake - Pancake","description":"Nullam sit amet turpis elementum ligula vehicula consequat. Morbi a ipsum. Integer a nibh.","imageUrl":"http://dummyimage.com/300x300.png/cc0000/ffffff","latitude":3.7,"longitude":98.166667,"quantity":74,"location":"7017 Goodland Pass"},
{"title":"Towel - Roll White","description":"Donec diam neque, vestibulum eget, vulputate ut, ultrices vel, augue.","imageUrl":"http://dummyimage.com/300x300.png/dddddd/000000","latitude":-22.8456877,"longitude":-45.2302005,"quantity":75,"location":"03469 Redwing Plaza"},
{"title":"Grapefruit - White","description":"Duis bibendum, felis sed interdum venenatis, turpis enim blandit mi, in porttitor pede justo eu massa. Donec dapibus.","imageUrl":"http://dummyimage.com/300x300.png/ff4444/ffffff","latitude":62.155883,"longitude":129.8236089,"quantity":76,"location":"59670 Prairieview Parkway"},
{"title":"Bread - Calabrese Baguette","description":"Proin at turpis a pede posuere nonummy.","imageUrl":"http://dummyimage.com/300x300.png/5fa2dd/ffffff","latitude":30.0565,"longitude":94.122434,"quantity":77,"location":"43 Michigan Alley"},
{"title":"Juice - Ocean Spray Kiwi","description":"Lorem ipsum dolor sit amet, consectetuer adipiscing elit. Proin interdum mauris non ligula pellentesque ultrices. Phasellus id sapien in sapien iaculis congue.","imageUrl":"http://dummyimage.com/300x300.png/cc0000/ffffff","latitude":-6.8575149,"longitude":107.6422488,"quantity":78,"location":"41737 Artisan Lane"},
{"title":"Laundry - Bag Cloth","description":"Integer a nibh.","imageUrl":"http://dummyimage.com/300x300.png/cc0000/ffffff","latitude":42.5824637,"longitude":141.3159801,"quantity":79,"location":"96 Morrow Alley"},
{"title":"Beets - Mini Golden","description":"Morbi vel lectus in quam fringilla rhoncus. Mauris enim leo, rhoncus sed, vestibulum sit amet, cursus id, turpis. Integer aliquet, massa id lobortis convallis, tortor risus dapibus augue, vel accumsan tellus nisi eu orci.","imageUrl":"http://dummyimage.com/300x300.png/dddddd/000000","latitude":25.431829,"longitude":119.015255,"quantity":80,"location":"763 Anzinger Road"},
{"title":"Plate Pie Foil","description":"Praesent id massa id nisl venenatis lacinia. Aenean sit amet justo.","imageUrl":"http://dummyimage.com/300x300.png/5fa2dd/ffffff","latitude":36.9014978,"longitude":66.1831701,"quantity":81,"location":"39 Crowley Drive"},
{"title":"Liqueur Banana, Ramazzotti","description":"In hac habitasse platea dictumst. Maecenas ut massa quis augue luctus tincidunt. Nulla mollis molestie lorem.","imageUrl":"http://dummyimage.com/300x300.png/dddddd/000000","latitude":-7.7469239,"longitude":110.3729973,"quantity":82,"location":"1697 Service Junction"},
{"title":"Soup - Campbells, Beef Barley","description":"Duis ac nibh.","imageUrl":"http://dummyimage.com/300x300.png/cc0000/ffffff","latitude":14.3836409,"longitude":120.8215431,"quantity":83,"location":"4 Miller Crossing"},
{"title":"Thyme - Lemon, Fresh","description":"Nam congue, risus semper porta volutpat, quam pede lobortis ligula, sit amet eleifend pede libero quis orci.","imageUrl":"http://dummyimage.com/300x300.png/5fa2dd/ffffff","latitude":16.9334683,"longitude":121.7587348,"quantity":84,"location":"564 8th Terrace"},
{"title":"Wine - Winzer Krems Gruner","description":"Nullam varius. Nulla facilisi.","imageUrl":"http://dummyimage.com/300x300.png/ff4444/ffffff","latitude":50.1209479,"longitude":17.3831619,"quantity":85,"location":"289 Welch Trail"},
{"title":"Shrimp - 16 - 20 Cooked, Peeled","description":"Vestibulum ante ipsum primis in faucibus orci luctus et ultrices posuere cubilia Curae; Mauris viverra diam vitae quam. Suspendisse potenti. Nullam porttitor lacus at turpis.","imageUrl":"http://dummyimage.com/300x300.png/ff4444/ffffff","latitude":53.3062953,"longitude":36.0446294,"quantity":86,"location":"025 Charing Cross Pass"},
{"title":"Honey - Liquid","description":"Integer ac leo. Pellentesque ultrices mattis odio.","imageUrl":"http://dummyimage.com/300x300.png/cc0000/ffffff","latitude":-7.3756003,"longitude":110.9476831,"quantity":87,"location":"43 Hoepker Place"},
{"title":"Wine - Vidal Icewine Magnotta","description":"Sed sagittis.","imageUrl":"http://dummyimage.com/300x300.png/ff4444/ffffff","latitude":51.9918835,"longitude":15.7842357,"quantity":88,"location":"23 Springs Junction"},
{"title":"Bananas","description":"In congue.","imageUrl":"http://dummyimage.com/300x300.png/cc0000/ffffff","latitude":-24.5323166,"longitude":32.9831998,"quantity":89,"location":"2 Dixon Point"},
{"title":"Kolrabi","description":"Vivamus in felis eu sapien cursus vestibulum. Proin eu mi.","imageUrl":"http://dummyimage.com/300x300.png/5fa2dd/ffffff","latitude":37.868872,"longitude":116.144417,"quantity":90,"location":"109 Orin Road"},
{"title":"Table Cloth 53x53 White","description":"Maecenas leo odio, condimentum id, luctus nec, molestie sed, justo. Pellentesque viverra pede ac diam. Cras pellentesque volutpat dui.","imageUrl":"http://dummyimage.com/300x300.png/ff4444/ffffff","latitude":29.673196,"longitude":110.73404,"quantity":91,"location":"8 Sloan Alley"},
{"title":"Cumin - Ground","description":"Nullam molestie nibh in lectus. Pellentesque at nulla. Suspendisse potenti.","imageUrl":"http://dummyimage.com/300x300.png/dddddd/000000","latitude":9.0144539,"longitude":37.4494636,"quantity":92,"location":"99027 Judy Lane"},
{"title":"Schnappes Peppermint - Walker","description":"Vivamus vestibulum sagittis sapien. Cum sociis natoque penatibus et magnis dis parturient montes, nascetur ridiculus mus.","imageUrl":"http://dummyimage.com/300x300.png/cc0000/ffffff","latitude":-38.9642683,"longitude":-68.0370766,"quantity":93,"location":"33 South Center"},
{"title":"Pop - Club Soda Can","description":"Curabitur in libero ut massa volutpat convallis.","imageUrl":"http://dummyimage.com/300x300.png/dddddd/000000","latitude":-7.7607338,"longitude":112.1698476,"quantity":94,"location":"64614 Bashford Park"},
{"title":"English Muffin","description":"Maecenas leo odio, condimentum id, luctus nec, molestie sed, justo. Pellentesque viverra pede ac diam. Cras pellentesque volutpat dui.","imageUrl":"http://dummyimage.com/300x300.png/5fa2dd/ffffff","latitude":15.9156421,"longitude":2.396174,"quantity":95,"location":"06 Packers Pass"},
{"title":"Bagelers - Cinn / Brown","description":"Lorem ipsum dolor sit amet, consectetuer adipiscing elit. Proin interdum mauris non ligula pellentesque ultrices.","imageUrl":"http://dummyimage.com/300x300.png/ff4444/ffffff","latitude":14.0790439,"longitude":5.956825,"quantity":96,"location":"028 Pennsylvania Parkway"},
{"title":"Cheese - Goat","description":"Nulla nisl. Nunc nisl.","imageUrl":"http://dummyimage.com/300x300.png/cc0000/ffffff","latitude":38.1261246,"longitude":23.8707783,"quantity":97,"location":"2 Porter Place"},
{"title":"Piping Jelly - All Colours","description":"Nullam porttitor lacus at turpis.","imageUrl":"http://dummyimage.com/300x300.png/ff4444/ffffff","latitude":40.761653,"longitude":112.378894,"quantity":98,"location":"3111 Maywood Pass"},
{"title":"Glass - Juice Clear 5oz 55005","description":"Donec posuere metus vitae ipsum. Aliquam non mauris.","imageUrl":"http://dummyimage.com/300x300.png/cc0000/ffffff","latitude":44.0179842,"longitude":1.3585474,"quantity":99,"location":"04 Mariners Cove Road"},
{"title":"Lettuce - Radicchio","description":"In eleifend quam a odio. In hac habitasse platea dictumst.","imageUrl":"http://dummyimage.com/300x300.png/dddddd/000000","latitude":-6.1718076,"longitude":106.8488128,"quantity":100,"location":"19 Larry Park"},
{"title":"Bread - Hot Dog Buns","description":"Maecenas rhoncus aliquam lacus.","imageUrl":"http://dummyimage.com/300x300.png/cc0000/ffffff","latitude":-14.3562,"longitude":-75.6769489,"quantity":101,"location":"387 Sunbrook Crossing"},
{"title":"Oil - Hazelnut","description":"In quis justo.","imageUrl":"http://dummyimage.com/300x300.png/ff4444/ffffff","latitude":-7.0117033,"longitude":108.3682641,"quantity":102,"location":"45341 Hooker Street"},
{"title":"Napkin Colour","description":"Phasellus sit amet erat. Nulla tempus.","imageUrl":"http://dummyimage.com/300x300.png/cc0000/ffffff","latitude":-21.597138,"longitude":165.363472,"quantity":103,"location":"67758 Delladonna Plaza"},
{"title":"Flour - Rye","description":"Sed ante. Vivamus tortor. Duis mattis egestas metus.","imageUrl":"http://dummyimage.com/300x300.png/5fa2dd/ffffff","latitude":31.068932,"longitude":121.397142,"quantity":104,"location":"25321 Leroy Park"},
{"title":"Lettuce - Spring Mix","description":"Duis bibendum, felis sed interdum venenatis, turpis enim blandit mi, in porttitor pede justo eu massa. Donec dapibus.","imageUrl":"http://dummyimage.com/300x300.png/dddddd/000000","latitude":-11.691928,"longitude":-41.4691745,"quantity":105,"location":"5 Northport Drive"},
{"title":"Daikon Radish","description":"Suspendisse potenti.","imageUrl":"http://dummyimage.com/300x300.png/5fa2dd/ffffff","latitude":35.275,"longitude":126.50944,"quantity":106,"location":"8 Columbus Street"},
{"title":"Emulsifier","description":"Nunc purus. Phasellus in felis.","imageUrl":"http://dummyimage.com/300x300.png/5fa2dd/ffffff","latitude":26.9597709,"longitude":49.5687416,"quantity":107,"location":"6 Park Meadow Junction"},
{"title":"Wine - Mas Chicet Rose, Vintage","description":"Suspendisse potenti. In eleifend quam a odio. In hac habitasse platea dictumst.","imageUrl":"http://dummyimage.com/300x300.png/dddddd/000000","latitude":6.8793892,"longitude":-72.189,"quantity":108,"location":"0718 Dexter Junction"},
{"title":"Alize Gold Passion","description":"Morbi non lectus. Aliquam sit amet diam in magna bibendum imperdiet.","imageUrl":"http://dummyimage.com/300x300.png/5fa2dd/ffffff","latitude":31.223427,"longitude":121.455964,"quantity":109,"location":"4741 Lakeland Avenue"},
{"title":"Crab - Soft Shell","description":"Donec vitae nisi. Nam ultrices, libero non mattis pulvinar, nulla pede ullamcorper augue, a suscipit nulla elit ac nulla.","imageUrl":"http://dummyimage.com/300x300.png/cc0000/ffffff","latitude":13.0748879,"longitude":120.7213113,"quantity":110,"location":"2 Florence Parkway"},
{"title":"Celery","description":"Fusce consequat.","imageUrl":"http://dummyimage.com/300x300.png/dddddd/000000","latitude":52.0408964,"longitude":18.9179279,"quantity":111,"location":"3 Dapin Lane"},
{"title":"Turnip - Wax","description":"Quisque id justo sit amet sapien dignissim vestibulum. Vestibulum ante ipsum primis in faucibus orci luctus et ultrices posuere cubilia Curae; Nulla dapibus dolor vel est.","imageUrl":"http://dummyimage.com/300x300.png/5fa2dd/ffffff","latitude":-6.8435796,"longitude":106.8296372,"quantity":112,"location":"8 Monica Trail"},
{"title":"Oil - Safflower","description":"Vestibulum quam sapien, varius ut, blandit non, interdum in, ante. Vestibulum ante ipsum primis in faucibus orci luctus et ultrices posuere cubilia Curae; Duis faucibus accumsan odio. Curabitur convallis.","imageUrl":"http://dummyimage.com/300x300.png/cc0000/ffffff","latitude":9.8287393,"longitude":122.6384628,"quantity":113,"location":"2115 Laurel Hill"},
{"title":"Potatoes - Mini Red","description":"Suspendisse potenti. Nullam porttitor lacus at turpis.","imageUrl":"http://dummyimage.com/300x300.png/dddddd/000000","latitude":28.065524,"longitude":112.217855,"quantity":114,"location":"88937 Green Trail"},
{"title":"Beef - Ox Tail, Frozen","description":"In congue. Etiam justo.","imageUrl":"http://dummyimage.com/300x300.png/ff4444/ffffff","latitude":41.0826078,"longitude":20.4425942,"quantity":115,"location":"13187 Messerschmidt Alley"},
{"title":"Soup - Base Broth Beef","description":"Fusce posuere felis sed lacus. Morbi sem mauris, laoreet ut, rhoncus aliquet, pulvinar sed, nisl. Nunc rhoncus dui vel sem.","imageUrl":"http://dummyimage.com/300x300.png/5fa2dd/ffffff","latitude":21.0598649,"longitude":105.4943648,"quantity":116,"location":"41 Tony Place"},
{"title":"Jam - Strawberry, 20 Ml Jar","description":"Aenean sit amet justo.","imageUrl":"http://dummyimage.com/300x300.png/5fa2dd/ffffff","latitude":36.09,"longitude":-79.78,"quantity":117,"location":"865 Spohn Trail"},
{"title":"Artichokes - Jerusalem","description":"Cum sociis natoque penatibus et magnis dis parturient montes, nascetur ridiculus mus. Etiam vel augue. Vestibulum rutrum rutrum neque.","imageUrl":"http://dummyimage.com/300x300.png/dddddd/000000","latitude":7.198851,"longitude":5.593239,"quantity":118,"location":"0 Village Plaza"},
{"title":"Coriander - Ground","description":"Phasellus sit amet erat. Nulla tempus.","imageUrl":"http://dummyimage.com/300x300.png/5fa2dd/ffffff","latitude":39.859131,"longitude":-8.8426989,"quantity":119,"location":"4 Jay Court"},
{"title":"Beer - Sleemans Cream Ale","description":"Suspendisse potenti. Nullam porttitor lacus at turpis. Donec posuere metus vitae ipsum.","imageUrl":"http://dummyimage.com/300x300.png/5fa2dd/ffffff","latitude":-6.3052,"longitude":105.8971,"quantity":120,"location":"46 Bluejay Center"},
{"title":"Wine - Taylors Reserve","description":"In hac habitasse platea dictumst.","imageUrl":"http://dummyimage.com/300x300.png/dddddd/000000","latitude":26.82808,"longitude":114.835777,"quantity":121,"location":"484 Sundown Trail"},
{"title":"Rabbit - Frozen","description":"Lorem ipsum dolor sit amet, consectetuer adipiscing elit. Proin interdum mauris non ligula pellentesque ultrices.","imageUrl":"http://dummyimage.com/300x300.png/ff4444/ffffff","latitude":32.254578,"longitude":35.191041,"quantity":122,"location":"8 Johnson Way"},
{"title":"Tart - Lemon","description":"Phasellus id sapien in sapien iaculis congue. Vivamus metus arcu, adipiscing molestie, hendrerit at, vulputate vitae, nisl.","imageUrl":"http://dummyimage.com/300x300.png/cc0000/ffffff","latitude":30.378737,"longitude":112.649998,"quantity":123,"location":"7 Tennyson Drive"},
{"title":"Chicken - Leg, Boneless","description":"Vestibulum ante ipsum primis in faucibus orci luctus et ultrices posuere cubilia Curae; Nulla dapibus dolor vel est. Donec odio justo, sollicitudin ut, suscipit a, feugiat et, eros. Vestibulum ac est lacinia nisi venenatis tristique.","imageUrl":"http://dummyimage.com/300x300.png/dddddd/000000","latitude":-21.8047006,"longitude":-54.5432691,"quantity":124,"location":"1550 Redwing Way"},
{"title":"Lettuce - Baby Salad Greens","description":"Suspendisse accumsan tortor quis turpis. Sed ante. Vivamus tortor.","imageUrl":"http://dummyimage.com/300x300.png/dddddd/000000","latitude":55.6152783,"longitude":37.9416367,"quantity":125,"location":"68329 Red Cloud Trail"},
{"title":"Beef Flat Iron Steak","description":"Nulla ut erat id mauris vulputate elementum.","imageUrl":"http://dummyimage.com/300x300.png/cc0000/ffffff","latitude":35.3350072,"longitude":129.0371689,"quantity":126,"location":"9088 Eagle Crest Hill"},
{"title":"Bandage - Flexible Neon","description":"Maecenas rhoncus aliquam lacus.","imageUrl":"http://dummyimage.com/300x300.png/5fa2dd/ffffff","latitude":41.8210285,"longitude":20.9641822,"quantity":127,"location":"948 Lindbergh Park"},
{"title":"Orange Roughy 4/6 Oz","description":"Donec posuere metus vitae ipsum.","imageUrl":"http://dummyimage.com/300x300.png/dddddd/000000","latitude":-16.4544375,"longitude":-71.4655565,"quantity":128,"location":"262 Manufacturers Lane"},
{"title":"Salmon - Fillets","description":"Mauris sit amet eros. Suspendisse accumsan tortor quis turpis. Sed ante.","imageUrl":"http://dummyimage.com/300x300.png/cc0000/ffffff","latitude":4.632147,"longitude":-74.463014,"quantity":129,"location":"4664 High Crossing Park"},
{"title":"Bread - Ciabatta Buns","description":"Cras in purus eu magna vulputate luctus. Cum sociis natoque penatibus et magnis dis parturient montes, nascetur ridiculus mus.","imageUrl":"http://dummyimage.com/300x300.png/dddddd/000000","latitude":24.094765,"longitude":116.00509,"quantity":130,"location":"4 Delladonna Point"},
{"title":"Tuna - Loin","description":"Aliquam quis turpis eget elit sodales scelerisque.","imageUrl":"http://dummyimage.com/300x300.png/dddddd/000000","latitude":41.8038684,"longitude":140.7289269,"quantity":131,"location":"5239 Troy Plaza"},
{"title":"Liqueur - Melon","description":"Fusce posuere felis sed lacus. Morbi sem mauris, laoreet ut, rhoncus aliquet, pulvinar sed, nisl. Nunc rhoncus dui vel sem.","imageUrl":"http://dummyimage.com/300x300.png/5fa2dd/ffffff","latitude":-7.4903037,"longitude":108.0865424,"quantity":132,"location":"68097 Hazelcrest Parkway"},
{"title":"Table Cloth 62x114 Colour","description":"Ut tellus. Nulla ut erat id mauris vulputate elementum. Nullam varius.","imageUrl":"http://dummyimage.com/300x300.png/ff4444/ffffff","latitude":3.1121428,"longitude":101.6935065,"quantity":133,"location":"82 Derek Drive"},
{"title":"Yokaline","description":"Nulla ac enim. In tempor, turpis nec euismod scelerisque, quam turpis adipiscing lorem, vitae mattis nibh ligula nec sem.","imageUrl":"http://dummyimage.com/300x300.png/ff4444/ffffff","latitude":36.0941745,"longitude":28.0162191,"quantity":134,"location":"364 Nevada Place"},
{"title":"Cheese - Parmesan Grated","description":"Nunc nisl. Duis bibendum, felis sed interdum venenatis, turpis enim blandit mi, in porttitor pede justo eu massa. Donec dapibus.","imageUrl":"http://dummyimage.com/300x300.png/ff4444/ffffff","latitude":-6.664163,"longitude":111.5811123,"quantity":135,"location":"6075 Fuller Way"},
{"title":"Pepper - Red Thai","description":"Vivamus vel nulla eget eros elementum pellentesque. Quisque porta volutpat erat. Quisque erat eros, viverra eget, congue eget, semper rutrum, nulla.","imageUrl":"http://dummyimage.com/300x300.png/ff4444/ffffff","latitude":53.543617,"longitude":49.2636336,"quantity":136,"location":"198 Basil Parkway"},
{"title":"Kellogs All Bran Bars","description":"Integer aliquet, massa id lobortis convallis, tortor risus dapibus augue, vel accumsan tellus nisi eu orci. Mauris lacinia sapien quis libero.","imageUrl":"http://dummyimage.com/300x300.png/cc0000/ffffff","latitude":35.2285451,"longitude":128.8893517,"quantity":137,"location":"40 Veith Street"},
{"title":"Pizza Pizza Dough","description":"Donec vitae nisi. Nam ultrices, libero non mattis pulvinar, nulla pede ullamcorper augue, a suscipit nulla elit ac nulla.","imageUrl":"http://dummyimage.com/300x300.png/cc0000/ffffff","latitude":51.1329676,"longitude":6.4449432,"quantity":138,"location":"17 Melby Crossing"},
{"title":"Ecolab Digiclean Mild Fm","description":"Ut tellus.","imageUrl":"http://dummyimage.com/300x300.png/dddddd/000000","latitude":48.8693156,"longitude":2.3501981,"quantity":139,"location":"89843 2nd Park"},
{"title":"Drambuie","description":"In est risus, auctor sed, tristique in, tempus sit amet, sem. Fusce consequat.","imageUrl":"http://dummyimage.com/300x300.png/cc0000/ffffff","latitude":-8.5514,"longitude":116.5189,"quantity":140,"location":"54543 Emmet Trail"},
{"title":"Hog / Sausage Casing - Pork","description":"Lorem ipsum dolor sit amet, consectetuer adipiscing elit.","imageUrl":"http://dummyimage.com/300x300.png/cc0000/ffffff","latitude":30.113962,"longitude":118.169798,"quantity":141,"location":"28769 Lakewood Plaza"},
{"title":"Puree - Mango","description":"Vivamus tortor. Duis mattis egestas metus.","imageUrl":"http://dummyimage.com/300x300.png/ff4444/ffffff","latitude":40.752984,"longitude":-73.9145038,"quantity":142,"location":"5834 Sloan Center"},
{"title":"Flour Pastry Super Fine","description":"Suspendisse potenti. Cras in purus eu magna vulputate luctus.","imageUrl":"http://dummyimage.com/300x300.png/cc0000/ffffff","latitude":-6.9901702,"longitude":110.3189662,"quantity":143,"location":"397 Bunting Park"},
{"title":"Soup - Knorr, Chicken Gumbo","description":"Fusce congue, diam id ornare imperdiet, sapien urna pretium nisl, ut volutpat sapien arcu sed augue. Aliquam erat volutpat.","imageUrl":"http://dummyimage.com/300x300.png/dddddd/000000","latitude":56.7478077,"longitude":37.520581,"quantity":144,"location":"89 Jackson Drive"},
{"title":"Mushroom - Morels, Dry","description":"Nullam varius. Nulla facilisi.","imageUrl":"http://dummyimage.com/300x300.png/cc0000/ffffff","latitude":44.5159761,"longitude":21.7315817,"quantity":145,"location":"507 Tennyson Drive"},
{"title":"Shiratamako - Rice Flour","description":"Maecenas tristique, est et tempus semper, est quam pharetra magna, ac consequat metus sapien ut nunc. Vestibulum ante ipsum primis in faucibus orci luctus et ultrices posuere cubilia Curae; Mauris viverra diam vitae quam. Suspendisse potenti.","imageUrl":"http://dummyimage.com/300x300.png/dddddd/000000","latitude":-20.0783278,"longitude":-44.301421,"quantity":146,"location":"5813 Golf View Way"},
{"title":"Pate Pans Yellow","description":"Nulla mollis molestie lorem. Quisque ut erat. Curabitur gravida nisi at nibh.","imageUrl":"http://dummyimage.com/300x300.png/5fa2dd/ffffff","latitude":56.0247998,"longitude":14.162184,"quantity":147,"location":"06 Fairview Trail"},
{"title":"Bagels Poppyseed","description":"Nunc nisl. Duis bibendum, felis sed interdum venenatis, turpis enim blandit mi, in porttitor pede justo eu massa. Donec dapibus.","imageUrl":"http://dummyimage.com/300x300.png/5fa2dd/ffffff","latitude":30.073805,"longitude":89.108299,"quantity":148,"location":"28579 Summerview Trail"},
{"title":"Crab - Imitation Flakes","description":"Nam ultrices, libero non mattis pulvinar, nulla pede ullamcorper augue, a suscipit nulla elit ac nulla. Sed vel enim sit amet nunc viverra dapibus. Nulla suscipit ligula in lacus.","imageUrl":"http://dummyimage.com/300x300.png/cc0000/ffffff","latitude":-9.5606075,"longitude":124.6026671,"quantity":149,"location":"15 Thackeray Alley"},
{"title":"Coffee - French Vanilla Frothy","description":"Aenean auctor gravida sem. Praesent id massa id nisl venenatis lacinia. Aenean sit amet justo.","imageUrl":"http://dummyimage.com/300x300.png/dddddd/000000","latitude":52.6325793,"longitude":4.7239896,"quantity":150,"location":"63979 Eagle Crest Parkway"},
{"title":"Pepper Squash","description":"Vestibulum ac est lacinia nisi venenatis tristique. Fusce congue, diam id ornare imperdiet, sapien urna pretium nisl, ut volutpat sapien arcu sed augue. Aliquam erat volutpat.","imageUrl":"http://dummyimage.com/300x300.png/5fa2dd/ffffff","latitude":47.4115468,"longitude":18.880086,"quantity":151,"location":"8613 Manley Hill"},
{"title":"Figs","description":"Proin interdum mauris non ligula pellentesque ultrices.","imageUrl":"http://dummyimage.com/300x300.png/5fa2dd/ffffff","latitude":42.4782102,"longitude":78.3955986,"quantity":152,"location":"26619 Center Parkway"},
{"title":"Yogurt - Blueberry, 175 Gr","description":"Nullam orci pede, venenatis non, sodales sed, tincidunt eu, felis. Fusce posuere felis sed lacus. Morbi sem mauris, laoreet ut, rhoncus aliquet, pulvinar sed, nisl.","imageUrl":"http://dummyimage.com/300x300.png/ff4444/ffffff","latitude":48.1862896,"longitude":99.856925,"quantity":153,"location":"499 Reinke Road"},
{"title":"Lettuce - Belgian Endive","description":"Aliquam erat volutpat. In congue. Etiam justo.","imageUrl":"http://dummyimage.com/300x300.png/ff4444/ffffff","latitude":56.6032687,"longitude":15.6253276,"quantity":154,"location":"5304 Rigney Circle"},
{"title":"Sausage - Breakfast","description":"Cras non velit nec nisi vulputate nonummy. Maecenas tincidunt lacus at velit. Vivamus vel nulla eget eros elementum pellentesque.","imageUrl":"http://dummyimage.com/300x300.png/ff4444/ffffff","latitude":6.14444,"longitude":125.70083,"quantity":155,"location":"77 Shasta Court"},
{"title":"Wine - Maipo Valle Cabernet","description":"In congue. Etiam justo. Etiam pretium iaculis justo.","imageUrl":"http://dummyimage.com/300x300.png/5fa2dd/ffffff","latitude":38.2509637,"longitude":23.6954977,"quantity":156,"location":"71281 Northport Plaza"},
{"title":"Oil - Sesame","description":"Nulla suscipit ligula in lacus.","imageUrl":"http://dummyimage.com/300x300.png/5fa2dd/ffffff","latitude":27.23895,"longitude":111.467674,"quantity":157,"location":"4 Farmco Park"},
{"title":"Oil - Hazelnut","description":"Nulla facilisi.","imageUrl":"http://dummyimage.com/300x300.png/5fa2dd/ffffff","latitude":42.2020702,"longitude":25.3248541,"quantity":158,"location":"7760 Dryden Place"},
{"title":"Cup - Translucent 7 Oz Clear","description":"Maecenas rhoncus aliquam lacus. Morbi quis tortor id nulla ultrices aliquet.","imageUrl":"http://dummyimage.com/300x300.png/ff4444/ffffff","latitude":37.5034138,"longitude":126.7660309,"quantity":159,"location":"34494 Roth Street"},
{"title":"Vinegar - Raspberry","description":"Ut tellus.","imageUrl":"http://dummyimage.com/300x300.png/cc0000/ffffff","latitude":38.4800003,"longitude":22.5843667,"quantity":160,"location":"7563 Clove Circle"},
{"title":"Turkey - Breast, Boneless Sk On","description":"Sed sagittis.","imageUrl":"http://dummyimage.com/300x300.png/cc0000/ffffff","latitude":25.917098,"longitude":69.104948,"quantity":161,"location":"24 Bay Avenue"},
{"title":"Sponge Cake Mix - Chocolate","description":"Nunc rhoncus dui vel sem.","imageUrl":"http://dummyimage.com/300x300.png/dddddd/000000","latitude":49.9899828,"longitude":18.6926323,"quantity":162,"location":"21351 Lotheville Pass"},
{"title":"Wine - Penfolds Koonuga Hill","description":"Aliquam sit amet diam in magna bibendum imperdiet. Nullam orci pede, venenatis non, sodales sed, tincidunt eu, felis.","imageUrl":"http://dummyimage.com/300x300.png/ff4444/ffffff","latitude":51.9500617,"longitude":6.3130893,"quantity":163,"location":"2 Huxley Terrace"},
{"title":"Pork - Backs - Boneless","description":"Donec quis orci eget orci vehicula condimentum. Curabitur in libero ut massa volutpat convallis. Morbi odio odio, elementum eu, interdum eu, tincidunt in, leo.","imageUrl":"http://dummyimage.com/300x300.png/dddddd/000000","latitude":48.7893977,"longitude":9.1962771,"quantity":164,"location":"9 Vermont Point"},
{"title":"Cheese - Brie, Triple Creme","description":"Nulla suscipit ligula in lacus.","imageUrl":"http://dummyimage.com/300x300.png/5fa2dd/ffffff","latitude":56.7952392,"longitude":105.8855714,"quantity":165,"location":"2 Bayside Road"},
{"title":"Lotus Leaves","description":"Vestibulum sed magna at nunc commodo placerat.","imageUrl":"http://dummyimage.com/300x300.png/cc0000/ffffff","latitude":-6.1103661,"longitude":106.1639749,"quantity":166,"location":"5364 Mariners Cove Street"},
{"title":"Hipnotiq Liquor","description":"Morbi non quam nec dui luctus rutrum. Nulla tellus.","imageUrl":"http://dummyimage.com/300x300.png/cc0000/ffffff","latitude":-38.9472836,"longitude":-68.1132357,"quantity":167,"location":"83034 Buhler Plaza"},
{"title":"Beef - Cooked, Corned","description":"Fusce congue, diam id ornare imperdiet, sapien urna pretium nisl, ut volutpat sapien arcu sed augue.","imageUrl":"http://dummyimage.com/300x300.png/dddddd/000000","latitude":10.837327,"longitude":-74.8390162,"quantity":168,"location":"25358 Riverside Terrace"},
{"title":"Wine - Rhine Riesling Wolf Blass","description":"Morbi sem mauris, laoreet ut, rhoncus aliquet, pulvinar sed, nisl. Nunc rhoncus dui vel sem. Sed sagittis.","imageUrl":"http://dummyimage.com/300x300.png/cc0000/ffffff","latitude":36.7225782,"longitude":25.2825598,"quantity":169,"location":"83 Menomonie Road"},
{"title":"Carbonated Water - White Grape","description":"Phasellus in felis.","imageUrl":"http://dummyimage.com/300x300.png/cc0000/ffffff","latitude":39.7007906,"longitude":140.9596925,"quantity":170,"location":"149 Helena Avenue"},
{"title":"Lobster - Tail 6 Oz","description":"Sed sagittis. Nam congue, risus semper porta volutpat, quam pede lobortis ligula, sit amet eleifend pede libero quis orci. Nullam molestie nibh in lectus.","imageUrl":"http://dummyimage.com/300x300.png/5fa2dd/ffffff","latitude":33.426956,"longitude":130.6436108,"quantity":171,"location":"64613 Moose Terrace"},
{"title":"Soup - Knorr, Country Bean","description":"Nulla nisl. Nunc nisl.","imageUrl":"http://dummyimage.com/300x300.png/5fa2dd/ffffff","latitude":-0.358417,"longitude":100.219498,"quantity":172,"location":"72679 Memorial Trail"},
{"title":"Coffee - Flavoured","description":"Curabitur gravida nisi at nibh. In hac habitasse platea dictumst.","imageUrl":"http://dummyimage.com/300x300.png/ff4444/ffffff","latitude":41.494692,"longitude":22.096939,"quantity":173,"location":"1308 Jana Center"},
{"title":"Sauce - Fish 25 Ozf Bottle","description":"Fusce consequat. Nulla nisl. Nunc nisl.","imageUrl":"http://dummyimage.com/300x300.png/5fa2dd/ffffff","latitude":-4.5699815,"longitude":-45.133574,"quantity":174,"location":"81728 Laurel Way"},
{"title":"Sansho Powder","description":"Lorem ipsum dolor sit amet, consectetuer adipiscing elit. Proin risus.","imageUrl":"http://dummyimage.com/300x300.png/cc0000/ffffff","latitude":31.695648,"longitude":115.431153,"quantity":175,"location":"11 Crescent Oaks Parkway"},
{"title":"Puree - Passion Fruit","description":"Duis bibendum, felis sed interdum venenatis, turpis enim blandit mi, in porttitor pede justo eu massa. Donec dapibus.","imageUrl":"http://dummyimage.com/300x300.png/dddddd/000000","latitude":29.4779861,"longitude":30.961645,"quantity":176,"location":"472 4th Pass"},
{"title":"Maple Syrup","description":"Mauris enim leo, rhoncus sed, vestibulum sit amet, cursus id, turpis.","imageUrl":"http://dummyimage.com/300x300.png/cc0000/ffffff","latitude":-27.8942891,"longitude":31.6454222,"quantity":177,"location":"57 Caliangt Lane"},
{"title":"Mcguinness - Blue Curacao","description":"Morbi vestibulum, velit id pretium iaculis, diam erat fermentum justo, nec condimentum neque sapien placerat ante.","imageUrl":"http://dummyimage.com/300x300.png/ff4444/ffffff","latitude":14.8165996,"longitude":106.9329091,"quantity":178,"location":"14 Sloan Point"},
{"title":"Cheese - Wine","description":"In est risus, auctor sed, tristique in, tempus sit amet, sem. Fusce consequat. Nulla nisl.","imageUrl":"http://dummyimage.com/300x300.png/ff4444/ffffff","latitude":-12.8528438,"longitude":-38.3271112,"quantity":179,"location":"2 Pine View Circle"},
{"title":"Table Cloth 81x81 Colour","description":"Mauris enim leo, rhoncus sed, vestibulum sit amet, cursus id, turpis. Integer aliquet, massa id lobortis convallis, tortor risus dapibus augue, vel accumsan tellus nisi eu orci.","imageUrl":"http://dummyimage.com/300x300.png/dddddd/000000","latitude":50.1758214,"longitude":30.1017634,"quantity":180,"location":"7008 Charing Cross Point"},
{"title":"Chestnuts - Whole,canned","description":"Praesent id massa id nisl venenatis lacinia. Aenean sit amet justo. Morbi ut odio.","imageUrl":"http://dummyimage.com/300x300.png/dddddd/000000","latitude":25.169786,"longitude":110.160651,"quantity":181,"location":"31838 Mayfield Street"},
{"title":"Beans - Fava, Canned","description":"Morbi odio odio, elementum eu, interdum eu, tincidunt in, leo. Maecenas pulvinar lobortis est. Phasellus sit amet erat.","imageUrl":"http://dummyimage.com/300x300.png/dddddd/000000","latitude":-9.7464338,"longitude":124.4309165,"quantity":182,"location":"70 Knutson Hill"},
{"title":"Capicola - Hot","description":"In est risus, auctor sed, tristique in, tempus sit amet, sem. Fusce consequat.","imageUrl":"http://dummyimage.com/300x300.png/dddddd/000000","latitude":52.286684,"longitude":104.292306,"quantity":183,"location":"75 Scott Pass"},
{"title":"Ginger - Ground","description":"Nullam orci pede, venenatis non, sodales sed, tincidunt eu, felis. Fusce posuere felis sed lacus. Morbi sem mauris, laoreet ut, rhoncus aliquet, pulvinar sed, nisl.","imageUrl":"http://dummyimage.com/300x300.png/cc0000/ffffff","latitude":33.2391279,"longitude":130.2750995,"quantity":184,"location":"49353 Florence Crossing"},
{"title":"Soho Lychee Liqueur","description":"In est risus, auctor sed, tristique in, tempus sit amet, sem. Fusce consequat.","imageUrl":"http://dummyimage.com/300x300.png/ff4444/ffffff","latitude":0.4907958,"longitude":121.4713265,"quantity":185,"location":"68 Duke Trail"},
{"title":"Chips - Miss Vickies","description":"Quisque porta volutpat erat. Quisque erat eros, viverra eget, congue eget, semper rutrum, nulla. Nunc purus.","imageUrl":"http://dummyimage.com/300x300.png/cc0000/ffffff","latitude":25.797931,"longitude":110.011238,"quantity":186,"location":"6 Lillian Place"},
{"title":"Olives - Kalamata","description":"Phasellus sit amet erat.","imageUrl":"http://dummyimage.com/300x300.png/5fa2dd/ffffff","latitude":7.8853608,"longitude":80.6523081,"quantity":187,"location":"09094 Fair Oaks Junction"},
{"title":"Cheese - Swiss","description":"Maecenas leo odio, condimentum id, luctus nec, molestie sed, justo. Pellentesque viverra pede ac diam.","imageUrl":"http://dummyimage.com/300x300.png/ff4444/ffffff","latitude":25.9813294,"longitude":-100.4490239,"quantity":188,"location":"074 Sycamore Trail"},
{"title":"Nectarines","description":"Morbi vel lectus in quam fringilla rhoncus.","imageUrl":"http://dummyimage.com/300x300.png/ff4444/ffffff","latitude":40.60624,"longitude":-8.5926997,"quantity":189,"location":"70566 Summerview Avenue"},
{"title":"Sea Bass - Fillets","description":"Vivamus vestibulum sagittis sapien. Cum sociis natoque penatibus et magnis dis parturient montes, nascetur ridiculus mus.","imageUrl":"http://dummyimage.com/300x300.png/cc0000/ffffff","latitude":47.2186081,"longitude":34.6661709,"quantity":190,"location":"6893 Columbus Park"},
{"title":"Peach - Halves","description":"Morbi non lectus.","imageUrl":"http://dummyimage.com/300x300.png/dddddd/000000","latitude":20.0390282,"longitude":-77.5791358,"quantity":191,"location":"662 Longview Drive"},
{"title":"Table Cloth 90x90 White","description":"Donec diam neque, vestibulum eget, vulputate ut, ultrices vel, augue. Vestibulum ante ipsum primis in faucibus orci luctus et ultrices posuere cubilia Curae; Donec pharetra, magna vestibulum aliquet ultrices, erat tortor sollicitudin mi, sit amet lobortis sapien sapien non mi. Integer ac neque.","imageUrl":"http://dummyimage.com/300x300.png/cc0000/ffffff","latitude":52.7189291,"longitude":58.677007,"quantity":192,"location":"92368 Stang Parkway"},
{"title":"Energy Drink Bawls","description":"Nullam sit amet turpis elementum ligula vehicula consequat.","imageUrl":"http://dummyimage.com/300x300.png/ff4444/ffffff","latitude":13.3807374,"longitude":109.1068822,"quantity":193,"location":"46 Badeau Parkway"},
{"title":"Bread Crumbs - Japanese Style","description":"In hac habitasse platea dictumst.","imageUrl":"http://dummyimage.com/300x300.png/5fa2dd/ffffff","latitude":15.366667,"longitude":43.433333,"quantity":194,"location":"860 Macpherson Pass"},
{"title":"Cheese - Cheddar, Mild","description":"Integer aliquet, massa id lobortis convallis, tortor risus dapibus augue, vel accumsan tellus nisi eu orci. Mauris lacinia sapien quis libero.","imageUrl":"http://dummyimage.com/300x300.png/cc0000/ffffff","latitude":-6.2057964,"longitude":106.7057733,"quantity":195,"location":"139 Mesta Pass"},
{"title":"Split Peas - Green, Dry","description":"Nunc rhoncus dui vel sem. Sed sagittis.","imageUrl":"http://dummyimage.com/300x300.png/cc0000/ffffff","latitude":-7.6387228,"longitude":111.0460407,"quantity":196,"location":"01 Sunbrook Alley"},
{"title":"Wanton Wrap","description":"Vestibulum ante ipsum primis in faucibus orci luctus et ultrices posuere cubilia Curae; Nulla dapibus dolor vel est.","imageUrl":"http://dummyimage.com/300x300.png/ff4444/ffffff","latitude":-9.1930089,"longitude":-38.2110938,"quantity":197,"location":"118 Reindahl Terrace"},
{"title":"Sauce - Black Current, Dry Mix","description":"Etiam justo. Etiam pretium iaculis justo.","imageUrl":"http://dummyimage.com/300x300.png/dddddd/000000","latitude":46.8282022,"longitude":28.589271,"quantity":198,"location":"5 Leroy Junction"},
{"title":"Guava","description":"Nulla ac enim. In tempor, turpis nec euismod scelerisque, quam turpis adipiscing lorem, vitae mattis nibh ligula nec sem. Duis aliquam convallis nunc.","imageUrl":"http://dummyimage.com/300x300.png/5fa2dd/ffffff","latitude":57.6442367,"longitude":56.4727932,"quantity":199,"location":"168 New Castle Drive"},
{"title":"Wine - Barolo Fontanafredda","description":"Duis aliquam convallis nunc.","imageUrl":"http://dummyimage.com/300x300.png/dddddd/000000","latitude":30.070933,"longitude":118.181531,"quantity":200,"location":"5 Old Shore Parkway"},
{"title":"Wine - White, Ej Gallo","description":"Proin interdum mauris non ligula pellentesque ultrices. Phasellus id sapien in sapien iaculis congue. Vivamus metus arcu, adipiscing molestie, hendrerit at, vulputate vitae, nisl.","imageUrl":"http://dummyimage.com/300x300.png/5fa2dd/ffffff","latitude":25.8513334,"longitude":-97.45842,"quantity":201,"location":"3753 Oneill Drive"},
{"title":"Wine - Magnotta, White","description":"Mauris lacinia sapien quis libero. Nullam sit amet turpis elementum ligula vehicula consequat. Morbi a ipsum.","imageUrl":"http://dummyimage.com/300x300.png/dddddd/000000","latitude":-12.1111107,"longitude":-77.0333188,"quantity":202,"location":"2621 Farragut Court"},
{"title":"Flower - Leather Leaf Fern","description":"Maecenas pulvinar lobortis est. Phasellus sit amet erat. Nulla tempus.","imageUrl":"http://dummyimage.com/300x300.png/5fa2dd/ffffff","latitude":61.3611476,"longitude":15.9055746,"quantity":203,"location":"10619 Ronald Regan Parkway"},
{"title":"Muffin Carrot - Individual","description":"Phasellus sit amet erat. Nulla tempus. Vivamus in felis eu sapien cursus vestibulum.","imageUrl":"http://dummyimage.com/300x300.png/5fa2dd/ffffff","latitude":52.1861944,"longitude":5.3099089,"quantity":204,"location":"90 Hoepker Street"},
{"title":"Ice Cream - Chocolate","description":"Integer tincidunt ante vel ipsum. Praesent blandit lacinia erat. Vestibulum sed magna at nunc commodo placerat.","imageUrl":"http://dummyimage.com/300x300.png/5fa2dd/ffffff","latitude":3.3570113,"longitude":106.3316629,"quantity":205,"location":"6631 Lakewood Park"},
{"title":"Wine - Coteaux Du Tricastin Ac","description":"Cras pellentesque volutpat dui. Maecenas tristique, est et tempus semper, est quam pharetra magna, ac consequat metus sapien ut nunc. Vestibulum ante ipsum primis in faucibus orci luctus et ultrices posuere cubilia Curae; Mauris viverra diam vitae quam.","imageUrl":"http://dummyimage.com/300x300.png/ff4444/ffffff","latitude":3.7334765,"longitude":96.7999931,"quantity":206,"location":"3 Calypso Street"},
{"title":"Noodles - Cellophane, Thin","description":"Aenean sit amet justo. Morbi ut odio.","imageUrl":"http://dummyimage.com/300x300.png/ff4444/ffffff","latitude":27.939395,"longitude":104.622995,"quantity":207,"location":"10 Mifflin Court"},
{"title":"Clam - Cherrystone","description":"Morbi vestibulum, velit id pretium iaculis, diam erat fermentum justo, nec condimentum neque sapien placerat ante. Nulla justo. Aliquam quis turpis eget elit sodales scelerisque.","imageUrl":"http://dummyimage.com/300x300.png/ff4444/ffffff","latitude":37.7801069,"longitude":-3.8235525,"quantity":208,"location":"91 American Ash Drive"},
{"title":"Wine - Periguita Fonseca","description":"Sed vel enim sit amet nunc viverra dapibus. Nulla suscipit ligula in lacus. Curabitur at ipsum ac tellus semper interdum.","imageUrl":"http://dummyimage.com/300x300.png/ff4444/ffffff","latitude":29.338873,"longitude":110.525449,"quantity":209,"location":"27 Garrison Circle"},
{"title":"Cheese Cheddar Processed","description":"Praesent blandit. Nam nulla.","imageUrl":"http://dummyimage.com/300x300.png/dddddd/000000","latitude":13.1870951,"longitude":123.6222777,"quantity":210,"location":"77 Del Sol Crossing"},
{"title":"Cheese - Valancey","description":"Suspendisse potenti.","imageUrl":"http://dummyimage.com/300x300.png/cc0000/ffffff","latitude":35.744798,"longitude":96.4077358,"quantity":211,"location":"54 Loomis Drive"},
{"title":"Ecolab - Mikroklene 4/4 L","description":"Vestibulum quam sapien, varius ut, blandit non, interdum in, ante.","imageUrl":"http://dummyimage.com/300x300.png/ff4444/ffffff","latitude":48.8579687,"longitude":2.5764306,"quantity":212,"location":"20 Utah Circle"},
{"title":"Sugar - Cubes","description":"Fusce posuere felis sed lacus.","imageUrl":"http://dummyimage.com/300x300.png/dddddd/000000","latitude":43.8903154,"longitude":18.4410798,"quantity":213,"location":"67 Chinook Avenue"},
{"title":"Pasta - Angel Hair","description":"Etiam pretium iaculis justo. In hac habitasse platea dictumst.","imageUrl":"http://dummyimage.com/300x300.png/cc0000/ffffff","latitude":38.1731682,"longitude":20.4899734,"quantity":214,"location":"33 Algoma Court"},
{"title":"Basil - Seedlings Cookstown","description":"Cras pellentesque volutpat dui. Maecenas tristique, est et tempus semper, est quam pharetra magna, ac consequat metus sapien ut nunc. Vestibulum ante ipsum primis in faucibus orci luctus et ultrices posuere cubilia Curae; Mauris viverra diam vitae quam.","imageUrl":"http://dummyimage.com/300x300.png/ff4444/ffffff","latitude":45.3481651,"longitude":14.5032137,"quantity":215,"location":"747 Fairview Alley"},
{"title":"Apricots - Dried","description":"Nulla tempus. Vivamus in felis eu sapien cursus vestibulum. Proin eu mi.","imageUrl":"http://dummyimage.com/300x300.png/5fa2dd/ffffff","latitude":36.9268274,"longitude":50.6430658,"quantity":216,"location":"8624 Westridge Alley"},
{"title":"Wine - Toasted Head","description":"Vestibulum ante ipsum primis in faucibus orci luctus et ultrices posuere cubilia Curae; Mauris viverra diam vitae quam. Suspendisse potenti. Nullam porttitor lacus at turpis.","imageUrl":"http://dummyimage.com/300x300.png/cc0000/ffffff","latitude":37.8471205,"longitude":21.3833543,"quantity":217,"location":"5 Birchwood Trail"},
{"title":"Flour - Teff","description":"Duis ac nibh. Fusce lacus purus, aliquet at, feugiat non, pretium quis, lectus.","imageUrl":"http://dummyimage.com/300x300.png/5fa2dd/ffffff","latitude":26.665617,"longitude":119.547932,"quantity":218,"location":"87668 Calypso Center"},
{"title":"Tendrils - Baby Pea, Organic","description":"Vestibulum ante ipsum primis in faucibus orci luctus et ultrices posuere cubilia Curae; Mauris viverra diam vitae quam.","imageUrl":"http://dummyimage.com/300x300.png/cc0000/ffffff","latitude":22.9221592,"longitude":-82.6861446,"quantity":219,"location":"875 Porter Court"},
{"title":"Soup - Beef Conomme, Dry","description":"Duis bibendum. Morbi non quam nec dui luctus rutrum.","imageUrl":"http://dummyimage.com/300x300.png/dddddd/000000","latitude":-8.1132729,"longitude":-35.0169621,"quantity":220,"location":"80 Bashford Lane"},
{"title":"Vinegar - Sherry","description":"Quisque porta volutpat erat. Quisque erat eros, viverra eget, congue eget, semper rutrum, nulla. Nunc purus.","imageUrl":"http://dummyimage.com/300x300.png/5fa2dd/ffffff","latitude":55.8431628,"longitude":13.2986314,"quantity":221,"location":"01 Kennedy Plaza"},
{"title":"Vermacelli - Sprinkles, Assorted","description":"Maecenas leo odio, condimentum id, luctus nec, molestie sed, justo.","imageUrl":"http://dummyimage.com/300x300.png/dddddd/000000","latitude":8.8498948,"longitude":99.4117197,"quantity":222,"location":"1673 Golden Leaf Park"},
{"title":"Oranges - Navel, 72","description":"Vivamus vel nulla eget eros elementum pellentesque.","imageUrl":"http://dummyimage.com/300x300.png/ff4444/ffffff","latitude":53.1936864,"longitude":-6.590926,"quantity":223,"location":"53039 Oak Valley Hill"},
{"title":"Rice - Brown","description":"In blandit ultrices enim. Lorem ipsum dolor sit amet, consectetuer adipiscing elit.","imageUrl":"http://dummyimage.com/300x300.png/cc0000/ffffff","latitude":49.08938,"longitude":-123.08241,"quantity":224,"location":"6616 South Circle"},
{"title":"Lotus Leaves","description":"Cum sociis natoque penatibus et magnis dis parturient montes, nascetur ridiculus mus.","imageUrl":"http://dummyimage.com/300x300.png/dddddd/000000","latitude":-6.8497345,"longitude":106.8738909,"quantity":225,"location":"37614 Morrow Circle"},
{"title":"Beef Striploin Aaa","description":"Vestibulum ante ipsum primis in faucibus orci luctus et ultrices posuere cubilia Curae; Duis faucibus accumsan odio. Curabitur convallis.","imageUrl":"http://dummyimage.com/300x300.png/cc0000/ffffff","latitude":31.229057,"longitude":121.481725,"quantity":226,"location":"5792 Columbus Junction"},
{"title":"Compound - Orange","description":"Lorem ipsum dolor sit amet, consectetuer adipiscing elit. Proin interdum mauris non ligula pellentesque ultrices.","imageUrl":"http://dummyimage.com/300x300.png/cc0000/ffffff","latitude":3.2093353,"longitude":101.6716295,"quantity":227,"location":"63865 Logan Crossing"},
{"title":"Muffin Puck Ww Carrot","description":"In hac habitasse platea dictumst. Aliquam augue quam, sollicitudin vitae, consectetuer eget, rutrum at, lorem.","imageUrl":"http://dummyimage.com/300x300.png/ff4444/ffffff","latitude":23.07555,"longitude":112.007814,"quantity":228,"location":"970 Eagan Trail"},
{"title":"Puree - Pear","description":"Nulla tempus. Vivamus in felis eu sapien cursus vestibulum. Proin eu mi.","imageUrl":"http://dummyimage.com/300x300.png/ff4444/ffffff","latitude":-7.666671,"longitude":111.8359916,"quantity":229,"location":"2925 Sage Drive"},
{"title":"Appetizer - Escargot Puff","description":"Suspendisse accumsan tortor quis turpis.","imageUrl":"http://dummyimage.com/300x300.png/5fa2dd/ffffff","latitude":40.570338,"longitude":116.554665,"quantity":230,"location":"70 Maywood Parkway"},
{"title":"Pie Filling - Pumpkin","description":"Cum sociis natoque penatibus et magnis dis parturient montes, nascetur ridiculus mus. Vivamus vestibulum sagittis sapien.","imageUrl":"http://dummyimage.com/300x300.png/cc0000/ffffff","latitude":51.9075123,"longitude":16.2061552,"quantity":231,"location":"840 Cambridge Court"},
{"title":"Coconut - Shredded, Unsweet","description":"Nullam sit amet turpis elementum ligula vehicula consequat. Morbi a ipsum. Integer a nibh.","imageUrl":"http://dummyimage.com/300x300.png/5fa2dd/ffffff","latitude":49.5631235,"longitude":21.7899388,"quantity":232,"location":"786 Division Junction"},
{"title":"Shrimp - Black Tiger 13/15","description":"In hac habitasse platea dictumst. Maecenas ut massa quis augue luctus tincidunt.","imageUrl":"http://dummyimage.com/300x300.png/dddddd/000000","latitude":53.8996586,"longitude":-6.391149,"quantity":233,"location":"1 Mayfield Circle"},
{"title":"Plastic Arrow Stir Stick","description":"Mauris ullamcorper purus sit amet nulla. Quisque arcu libero, rutrum ac, lobortis vel, dapibus at, diam. Nam tristique tortor eu pede.","imageUrl":"http://dummyimage.com/300x300.png/5fa2dd/ffffff","latitude":33.094679,"longitude":100.596781,"quantity":234,"location":"59 Waxwing Crossing"},
{"title":"Potatoes - Mini White 3 Oz","description":"Curabitur convallis.","imageUrl":"http://dummyimage.com/300x300.png/5fa2dd/ffffff","latitude":-6.7076379,"longitude":111.3709499,"quantity":235,"location":"5 Dorton Avenue"},
{"title":"Sprouts - Baby Pea Tendrils","description":"Morbi ut odio. Cras mi pede, malesuada in, imperdiet et, commodo vulputate, justo.","imageUrl":"http://dummyimage.com/300x300.png/dddddd/000000","latitude":7.8941941,"longitude":7.0659783,"quantity":236,"location":"6 Pennsylvania Junction"},
{"title":"Wine - Red, Gamay Noir","description":"Nam congue, risus semper porta volutpat, quam pede lobortis ligula, sit amet eleifend pede libero quis orci.","imageUrl":"http://dummyimage.com/300x300.png/ff4444/ffffff","latitude":26.753593,"longitude":110.138232,"quantity":237,"location":"715 Novick Park"},
{"title":"Cut Wakame - Hanawakaba","description":"Suspendisse potenti. In eleifend quam a odio. In hac habitasse platea dictumst.","imageUrl":"http://dummyimage.com/300x300.png/ff4444/ffffff","latitude":31.9617032,"longitude":119.5738403,"quantity":238,"location":"09 Caliangt Place"},
{"title":"Beef - Short Ribs","description":"Morbi non lectus. Aliquam sit amet diam in magna bibendum imperdiet.","imageUrl":"http://dummyimage.com/300x300.png/dddddd/000000","latitude":41.2662428,"longitude":-8.1163493,"quantity":239,"location":"594 Muir Road"},
{"title":"Truffle Paste","description":"In hac habitasse platea dictumst. Morbi vestibulum, velit id pretium iaculis, diam erat fermentum justo, nec condimentum neque sapien placerat ante.","imageUrl":"http://dummyimage.com/300x300.png/5fa2dd/ffffff","latitude":23.12911,"longitude":113.264385,"quantity":240,"location":"178 Straubel Circle"},
{"title":"Wine - Red, Lurton Merlot De","description":"Phasellus in felis. Donec semper sapien a libero. Nam dui.","imageUrl":"http://dummyimage.com/300x300.png/ff4444/ffffff","latitude":-30.7875929,"longitude":-57.7771566,"quantity":241,"location":"124 Moose Junction"},
{"title":"Huck White Towels","description":"Donec diam neque, vestibulum eget, vulputate ut, ultrices vel, augue.","imageUrl":"http://dummyimage.com/300x300.png/dddddd/000000","latitude":32.10828,"longitude":35.05096,"quantity":242,"location":"245 Hoard Road"},
{"title":"Beef - Tenderloin - Aa","description":"Fusce posuere felis sed lacus. Morbi sem mauris, laoreet ut, rhoncus aliquet, pulvinar sed, nisl.","imageUrl":"http://dummyimage.com/300x300.png/cc0000/ffffff","latitude":46.69823,"longitude":-71.58275,"quantity":243,"location":"1 Stang Terrace"},
{"title":"Oyster - In Shell","description":"Duis bibendum. Morbi non quam nec dui luctus rutrum.","imageUrl":"http://dummyimage.com/300x300.png/cc0000/ffffff","latitude":-6.8646647,"longitude":107.5889804,"quantity":244,"location":"91 Corscot Park"},
{"title":"Icecream Bar - Del Monte","description":"Mauris ullamcorper purus sit amet nulla. Quisque arcu libero, rutrum ac, lobortis vel, dapibus at, diam.","imageUrl":"http://dummyimage.com/300x300.png/ff4444/ffffff","latitude":40.7813001,"longitude":19.8440006,"quantity":245,"location":"3625 Lindbergh Point"},
{"title":"Beef - Ox Tail, Frozen","description":"Pellentesque at nulla.","imageUrl":"http://dummyimage.com/300x300.png/dddddd/000000","latitude":-0.5388381,"longitude":37.4596409,"quantity":246,"location":"17914 Dorton Lane"},
{"title":"Frangelico","description":"Duis ac nibh. Fusce lacus purus, aliquet at, feugiat non, pretium quis, lectus. Suspendisse potenti.","imageUrl":"http://dummyimage.com/300x300.png/dddddd/000000","latitude":26.8118673,"longitude":55.8913207,"quantity":247,"location":"101 Hintze Junction"},
{"title":"Steampan - Half Size Shallow","description":"Cras in purus eu magna vulputate luctus. Cum sociis natoque penatibus et magnis dis parturient montes, nascetur ridiculus mus. Vivamus vestibulum sagittis sapien.","imageUrl":"http://dummyimage.com/300x300.png/5fa2dd/ffffff","latitude":50.5609123,"longitude":18.943124,"quantity":248,"location":"66185 Nevada Road"},
{"title":"Oil - Truffle, Black","description":"Duis mattis egestas metus. Aenean fermentum.","imageUrl":"http://dummyimage.com/300x300.png/dddddd/000000","latitude":35.9594106,"longitude":38.9981052,"quantity":249,"location":"83780 Chinook Lane"},
{"title":"Horseradish - Prepared","description":"Mauris ullamcorper purus sit amet nulla. Quisque arcu libero, rutrum ac, lobortis vel, dapibus at, diam. Nam tristique tortor eu pede.","imageUrl":"http://dummyimage.com/300x300.png/ff4444/ffffff","latitude":41.3269373,"longitude":-8.570312,"quantity":250,"location":"321 Grasskamp Court"},
{"title":"Pie Pecan","description":"Integer ac neque. Duis bibendum. Morbi non quam nec dui luctus rutrum.","imageUrl":"http://dummyimage.com/300x300.png/5fa2dd/ffffff","latitude":1.4273554,"longitude":31.3484448,"quantity":251,"location":"80986 Nobel Lane"},
{"title":"Peas - Pigeon, Dry","description":"Nam congue, risus semper porta volutpat, quam pede lobortis ligula, sit amet eleifend pede libero quis orci.","imageUrl":"http://dummyimage.com/300x300.png/dddddd/000000","latitude":-11.24674,"longitude":-76.661598,"quantity":252,"location":"454 Badeau Avenue"},
{"title":"Wild Boar - Tenderloin","description":"Cum sociis natoque penatibus et magnis dis parturient montes, nascetur ridiculus mus. Vivamus vestibulum sagittis sapien.","imageUrl":"http://dummyimage.com/300x300.png/dddddd/000000","latitude":40.67267,"longitude":122.258961,"quantity":253,"location":"0287 Sunbrook Way"},
{"title":"Scotch - Queen Anne","description":"Fusce lacus purus, aliquet at, feugiat non, pretium quis, lectus. Suspendisse potenti. In eleifend quam a odio.","imageUrl":"http://dummyimage.com/300x300.png/dddddd/000000","latitude":23.83072,"longitude":111.621476,"quantity":254,"location":"59 Delaware Plaza"},
{"title":"Pecan Raisin - Tarts","description":"Nulla nisl.","imageUrl":"http://dummyimage.com/300x300.png/5fa2dd/ffffff","latitude":51.880525,"longitude":-8.4523258,"quantity":255,"location":"4 Towne Court"},
{"title":"Wine - Redchard Merritt","description":"Donec posuere metus vitae ipsum. Aliquam non mauris.","imageUrl":"http://dummyimage.com/300x300.png/5fa2dd/ffffff","latitude":51.1334208,"longitude":71.4655758,"quantity":256,"location":"3041 Monica Road"},
{"title":"Tomato - Peeled Italian Canned","description":"Vestibulum rutrum rutrum neque. Aenean auctor gravida sem. Praesent id massa id nisl venenatis lacinia.","imageUrl":"http://dummyimage.com/300x300.png/dddddd/000000","latitude":44.4248175,"longitude":8.9266041,"quantity":257,"location":"38897 Florence Crossing"},
{"title":"Wine - White, Ej Gallo","description":"Quisque arcu libero, rutrum ac, lobortis vel, dapibus at, diam.","imageUrl":"http://dummyimage.com/300x300.png/dddddd/000000","latitude":37.7616723,"longitude":-25.1607541,"quantity":258,"location":"7 Kim Road"},
{"title":"Cheese - Bocconcini","description":"Duis aliquam convallis nunc.","imageUrl":"http://dummyimage.com/300x300.png/5fa2dd/ffffff","latitude":47.8143666,"longitude":38.9149216,"quantity":259,"location":"72 Anderson Point"},
{"title":"Cookies - Englishbay Oatmeal","description":"Duis consequat dui nec nisi volutpat eleifend.","imageUrl":"http://dummyimage.com/300x300.png/ff4444/ffffff","latitude":49.3550162,"longitude":17.2849522,"quantity":260,"location":"6698 Kensington Way"},
{"title":"Pastry - Cheese Baked Scones","description":"Nulla nisl.","imageUrl":"http://dummyimage.com/300x300.png/dddddd/000000","latitude":40.71667,"longitude":19.56667,"quantity":261,"location":"04 Farragut Point"},
{"title":"Tea - Apple Green Tea","description":"In hac habitasse platea dictumst. Morbi vestibulum, velit id pretium iaculis, diam erat fermentum justo, nec condimentum neque sapien placerat ante. Nulla justo.","imageUrl":"http://dummyimage.com/300x300.png/ff4444/ffffff","latitude":25.401313,"longitude":114.362112,"quantity":262,"location":"81 Brown Trail"},
{"title":"Appetizer - Smoked Salmon / Dill","description":"Nulla tempus. Vivamus in felis eu sapien cursus vestibulum.","imageUrl":"http://dummyimage.com/300x300.png/dddddd/000000","latitude":-22.3281412,"longitude":27.8252814,"quantity":263,"location":"5087 Scott Crossing"},
{"title":"Compound - Orange","description":"Aliquam quis turpis eget elit sodales scelerisque. Mauris sit amet eros. Suspendisse accumsan tortor quis turpis.","imageUrl":"http://dummyimage.com/300x300.png/dddddd/000000","latitude":63.7435338,"longitude":53.7021347,"quantity":264,"location":"224 Gina Court"},
{"title":"Lettuce - Baby Salad Greens","description":"Phasellus sit amet erat. Nulla tempus.","imageUrl":"http://dummyimage.com/300x300.png/cc0000/ffffff","latitude":49.2088023,"longitude":39.5896987,"quantity":265,"location":"395 Straubel Center"},
{"title":"Bread - Italian Sesame Poly","description":"Vivamus metus arcu, adipiscing molestie, hendrerit at, vulputate vitae, nisl. Aenean lectus. Pellentesque eget nunc.","imageUrl":"http://dummyimage.com/300x300.png/cc0000/ffffff","latitude":31.7338222,"longitude":118.8719394,"quantity":266,"location":"45 Di Loreto Street"},
{"title":"Cumin - Ground","description":"Maecenas ut massa quis augue luctus tincidunt. Nulla mollis molestie lorem. Quisque ut erat.","imageUrl":"http://dummyimage.com/300x300.png/dddddd/000000","latitude":49.5015691,"longitude":23.9633999,"quantity":267,"location":"2298 Eastlawn Drive"},
{"title":"Lettuce - Red Leaf","description":"Nam dui. Proin leo odio, porttitor id, consequat in, consequat ut, nulla.","imageUrl":"http://dummyimage.com/300x300.png/cc0000/ffffff","latitude":43.1617132,"longitude":16.6926372,"quantity":268,"location":"7108 Golf View Avenue"},
{"title":"Chicken - Leg / Back Attach","description":"Pellentesque ultrices mattis odio.","imageUrl":"http://dummyimage.com/300x300.png/dddddd/000000","latitude":50.9076315,"longitude":128.4136847,"quantity":269,"location":"84119 Red Cloud Junction"},
{"title":"Oats Large Flake","description":"Nulla mollis molestie lorem. Quisque ut erat.","imageUrl":"http://dummyimage.com/300x300.png/ff4444/ffffff","latitude":32.756417,"longitude":21.7376178,"quantity":270,"location":"4287 Scoville Junction"},
{"title":"Bread - Sticks, Thin, Plain","description":"Mauris sit amet eros.","imageUrl":"http://dummyimage.com/300x300.png/5fa2dd/ffffff","latitude":41.302157,"longitude":123.7403542,"quantity":271,"location":"38 Merchant Terrace"},
{"title":"Table Cloth 81x81 Colour","description":"Mauris enim leo, rhoncus sed, vestibulum sit amet, cursus id, turpis. Integer aliquet, massa id lobortis convallis, tortor risus dapibus augue, vel accumsan tellus nisi eu orci. Mauris lacinia sapien quis libero.","imageUrl":"http://dummyimage.com/300x300.png/dddddd/000000","latitude":40.67267,"longitude":122.258961,"quantity":272,"location":"43497 North Center"},
{"title":"Broom And Brush Rack Black","description":"Integer tincidunt ante vel ipsum.","imageUrl":"http://dummyimage.com/300x300.png/5fa2dd/ffffff","latitude":42.7197486,"longitude":71.6080009,"quantity":273,"location":"87 Kensington Avenue"},
{"title":"Beans - Fava Fresh","description":"Integer a nibh.","imageUrl":"http://dummyimage.com/300x300.png/5fa2dd/ffffff","latitude":24.504737,"longitude":115.091672,"quantity":274,"location":"12817 Muir Terrace"},
{"title":"Honey - Comb","description":"Nunc nisl. Duis bibendum, felis sed interdum venenatis, turpis enim blandit mi, in porttitor pede justo eu massa.","imageUrl":"http://dummyimage.com/300x300.png/dddddd/000000","latitude":1.12808,"longitude":104.0301606,"quantity":275,"location":"888 Atwood Parkway"},
{"title":"Loquat","description":"Pellentesque at nulla.","imageUrl":"http://dummyimage.com/300x300.png/5fa2dd/ffffff","latitude":46.349041,"longitude":3.556485,"quantity":276,"location":"43 Monument Way"},
{"title":"Coffee Caramel Biscotti","description":"Vestibulum quam sapien, varius ut, blandit non, interdum in, ante. Vestibulum ante ipsum primis in faucibus orci luctus et ultrices posuere cubilia Curae; Duis faucibus accumsan odio.","imageUrl":"http://dummyimage.com/300x300.png/dddddd/000000","latitude":5.7643446,"longitude":20.670528,"quantity":277,"location":"37 Veith Park"},
{"title":"Potatoes - Mini White 3 Oz","description":"Aliquam quis turpis eget elit sodales scelerisque. Mauris sit amet eros. Suspendisse accumsan tortor quis turpis.","imageUrl":"http://dummyimage.com/300x300.png/5fa2dd/ffffff","latitude":48.081286,"longitude":20.7644305,"quantity":278,"location":"938 Anderson Lane"},
{"title":"Soup - Boston Clam Chowder","description":"Donec diam neque, vestibulum eget, vulputate ut, ultrices vel, augue. Vestibulum ante ipsum primis in faucibus orci luctus et ultrices posuere cubilia Curae; Donec pharetra, magna vestibulum aliquet ultrices, erat tortor sollicitudin mi, sit amet lobortis sapien sapien non mi. Integer ac neque.","imageUrl":"http://dummyimage.com/300x300.png/ff4444/ffffff","latitude":-15.1838408,"longitude":-72.9061903,"quantity":279,"location":"005 Loomis Place"},
{"title":"Syrup - Chocolate","description":"Proin leo odio, porttitor id, consequat in, consequat ut, nulla. Sed accumsan felis. Ut at dolor quis odio consequat varius.","imageUrl":"http://dummyimage.com/300x300.png/dddddd/000000","latitude":39.46662,"longitude":112.094594,"quantity":280,"location":"76 Union Junction"},
{"title":"V8 - Tropical Blend","description":"Praesent blandit. Nam nulla.","imageUrl":"http://dummyimage.com/300x300.png/ff4444/ffffff","latitude":36.7243344,"longitude":71.6131931,"quantity":281,"location":"4375 Jenifer Point"},
{"title":"Bouillion - Fish","description":"Nulla tempus. Vivamus in felis eu sapien cursus vestibulum.","imageUrl":"http://dummyimage.com/300x300.png/ff4444/ffffff","latitude":-7.4873219,"longitude":111.4156647,"quantity":282,"location":"229 Claremont Place"},
{"title":"Bar Nature Valley","description":"Duis at velit eu est congue elementum. In hac habitasse platea dictumst. Morbi vestibulum, velit id pretium iaculis, diam erat fermentum justo, nec condimentum neque sapien placerat ante.","imageUrl":"http://dummyimage.com/300x300.png/5fa2dd/ffffff","latitude":-33.7309374,"longitude":-70.7423218,"quantity":283,"location":"5677 Vermont Hill"},
{"title":"Grapes - Green","description":"Sed accumsan felis.","imageUrl":"http://dummyimage.com/300x300.png/ff4444/ffffff","latitude":38.2892237,"longitude":23.8248958,"quantity":284,"location":"51322 Havey Park"},
{"title":"Onion - Dried","description":"Nam ultrices, libero non mattis pulvinar, nulla pede ullamcorper augue, a suscipit nulla elit ac nulla. Sed vel enim sit amet nunc viverra dapibus.","imageUrl":"http://dummyimage.com/300x300.png/ff4444/ffffff","latitude":9.2394244,"longitude":5.3102505,"quantity":285,"location":"978 Truax Pass"},
{"title":"Papayas","description":"Duis bibendum, felis sed interdum venenatis, turpis enim blandit mi, in porttitor pede justo eu massa. Donec dapibus. Duis at velit eu est congue elementum.","imageUrl":"http://dummyimage.com/300x300.png/dddddd/000000","latitude":45.7608012,"longitude":15.8843252,"quantity":286,"location":"37058 New Castle Hill"},
{"title":"Beans - Green","description":"Etiam pretium iaculis justo.","imageUrl":"http://dummyimage.com/300x300.png/dddddd/000000","latitude":40.8890204,"longitude":22.9175369,"quantity":287,"location":"352 Northfield Place"},
{"title":"Tomatoes - Vine Ripe, Red","description":"Quisque id justo sit amet sapien dignissim vestibulum. Vestibulum ante ipsum primis in faucibus orci luctus et ultrices posuere cubilia Curae; Nulla dapibus dolor vel est.","imageUrl":"http://dummyimage.com/300x300.png/ff4444/ffffff","latitude":-38.0752295,"longitude":-57.5554058,"quantity":288,"location":"96 Maywood Plaza"},
{"title":"Bread Base - Gold Formel","description":"Aliquam augue quam, sollicitudin vitae, consectetuer eget, rutrum at, lorem. Integer tincidunt ante vel ipsum. Praesent blandit lacinia erat.","imageUrl":"http://dummyimage.com/300x300.png/dddddd/000000","latitude":28.074649,"longitude":119.141473,"quantity":289,"location":"319 Stone Corner Terrace"},
{"title":"Remy Red Berry Infusion","description":"Sed vel enim sit amet nunc viverra dapibus.","imageUrl":"http://dummyimage.com/300x300.png/ff4444/ffffff","latitude":7.5421232,"longitude":124.1539783,"quantity":290,"location":"848 Blackbird Park"},
{"title":"Kahlua","description":"Quisque erat eros, viverra eget, congue eget, semper rutrum, nulla. Nunc purus. Phasellus in felis.","imageUrl":"http://dummyimage.com/300x300.png/ff4444/ffffff","latitude":51.1081572,"longitude":15.583895,"quantity":291,"location":"5 Dexter Circle"},
{"title":"Bread - Hamburger Buns","description":"Fusce congue, diam id ornare imperdiet, sapien urna pretium nisl, ut volutpat sapien arcu sed augue. Aliquam erat volutpat.","imageUrl":"http://dummyimage.com/300x300.png/dddddd/000000","latitude":31.364902,"longitude":108.249509,"quantity":292,"location":"032 Fair Oaks Terrace"},
{"title":"Ice Cream Bar - Hagen Daz","description":"Etiam justo.","imageUrl":"http://dummyimage.com/300x300.png/ff4444/ffffff","latitude":51.9817834,"longitude":17.0627666,"quantity":293,"location":"92497 Rowland Junction"},
{"title":"Soup V8 Roasted Red Pepper","description":"Maecenas tincidunt lacus at velit. Vivamus vel nulla eget eros elementum pellentesque.","imageUrl":"http://dummyimage.com/300x300.png/ff4444/ffffff","latitude":47.5202786,"longitude":17.5142121,"quantity":294,"location":"45403 Fisk Avenue"},
{"title":"Tomatoes - Plum, Canned","description":"Morbi odio odio, elementum eu, interdum eu, tincidunt in, leo. Maecenas pulvinar lobortis est. Phasellus sit amet erat.","imageUrl":"http://dummyimage.com/300x300.png/dddddd/000000","latitude":45.448409,"longitude":-73.858939,"quantity":295,"location":"60 Kedzie Point"},
{"title":"Cheese - Brie,danish","description":"Aenean sit amet justo. Morbi ut odio.","imageUrl":"http://dummyimage.com/300x300.png/ff4444/ffffff","latitude":-15.7725451,"longitude":-69.6840125,"quantity":296,"location":"04 Sherman Street"},
{"title":"Trout Rainbow Whole","description":"Nunc purus. Phasellus in felis.","imageUrl":"http://dummyimage.com/300x300.png/dddddd/000000","latitude":54.2637785,"longitude":40.9511355,"quantity":297,"location":"42404 Clemons Point"},
{"title":"Wine - Taylors Reserve","description":"Cras mi pede, malesuada in, imperdiet et, commodo vulputate, justo. In blandit ultrices enim. Lorem ipsum dolor sit amet, consectetuer adipiscing elit.","imageUrl":"http://dummyimage.com/300x300.png/dddddd/000000","latitude":16.2359,"longitude":-61.558,"quantity":298,"location":"52496 Alpine Crossing"},
{"title":"Cheese - Goat With Herbs","description":"Aliquam quis turpis eget elit sodales scelerisque.","imageUrl":"http://dummyimage.com/300x300.png/5fa2dd/ffffff","latitude":38.0206378,"longitude":-7.2626804,"quantity":299,"location":"0667 Red Cloud Place"},
{"title":"Rolled Oats","description":"Morbi odio odio, elementum eu, interdum eu, tincidunt in, leo.","imageUrl":"http://dummyimage.com/300x300.png/cc0000/ffffff","latitude":40.1572681,"longitude":-8.1106277,"quantity":300,"location":"28 Novick Crossing"},
{"title":"Mushroom - King Eryingii","description":"Fusce consequat. Nulla nisl.","imageUrl":"http://dummyimage.com/300x300.png/cc0000/ffffff","latitude":3.756455,"longitude":116.750397,"quantity":301,"location":"3 Sugar Park"},
{"title":"Crab Meat Claw Pasteurise","description":"Nulla tempus.","imageUrl":"http://dummyimage.com/300x300.png/ff4444/ffffff","latitude":5.1970659,"longitude":96.5076426,"quantity":302,"location":"367 Michigan Street"},
{"title":"Wine - Ej Gallo Sonoma","description":"Vestibulum ante ipsum primis in faucibus orci luctus et ultrices posuere cubilia Curae; Duis faucibus accumsan odio. Curabitur convallis. Duis consequat dui nec nisi volutpat eleifend.","imageUrl":"http://dummyimage.com/300x300.png/5fa2dd/ffffff","latitude":47.666307,"longitude":-2.7887335,"quantity":303,"location":"7925 Stuart Place"},
{"title":"Shallots","description":"Donec diam neque, vestibulum eget, vulputate ut, ultrices vel, augue. Vestibulum ante ipsum primis in faucibus orci luctus et ultrices posuere cubilia Curae; Donec pharetra, magna vestibulum aliquet ultrices, erat tortor sollicitudin mi, sit amet lobortis sapien sapien non mi.","imageUrl":"http://dummyimage.com/300x300.png/5fa2dd/ffffff","latitude":28.0870967,"longitude":30.7618397,"quantity":304,"location":"4 Warner Center"},
{"title":"Lemonade - Natural, 591 Ml","description":"Maecenas ut massa quis augue luctus tincidunt. Nulla mollis molestie lorem. Quisque ut erat.","imageUrl":"http://dummyimage.com/300x300.png/5fa2dd/ffffff","latitude":31.793861,"longitude":117.309522,"quantity":305,"location":"314 Algoma Street"},
{"title":"Huck White Towels","description":"Nam congue, risus semper porta volutpat, quam pede lobortis ligula, sit amet eleifend pede libero quis orci. Nullam molestie nibh in lectus. Pellentesque at nulla.","imageUrl":"http://dummyimage.com/300x300.png/ff4444/ffffff","latitude":41.603085,"longitude":46.638308,"quantity":306,"location":"0 Fisk Center"},
{"title":"Raspberries - Fresh","description":"Fusce congue, diam id ornare imperdiet, sapien urna pretium nisl, ut volutpat sapien arcu sed augue. Aliquam erat volutpat. In congue.","imageUrl":"http://dummyimage.com/300x300.png/dddddd/000000","latitude":35.3179014,"longitude":136.9037455,"quantity":307,"location":"0652 Farwell Alley"},
{"title":"Flour - Fast / Rapid","description":"Pellentesque at nulla.","imageUrl":"http://dummyimage.com/300x300.png/5fa2dd/ffffff","latitude":44.903044,"longitude":-93.2332244,"quantity":308,"location":"4 Bunting Way"},
{"title":"Iced Tea - Lemon, 460 Ml","description":"Praesent id massa id nisl venenatis lacinia.","imageUrl":"http://dummyimage.com/300x300.png/5fa2dd/ffffff","latitude":51.227821,"longitude":51.3865431,"quantity":309,"location":"145 Mendota Circle"},
{"title":"Wine - Riesling Dr. Pauly","description":"Phasellus id sapien in sapien iaculis congue. Vivamus metus arcu, adipiscing molestie, hendrerit at, vulputate vitae, nisl.","imageUrl":"http://dummyimage.com/300x300.png/5fa2dd/ffffff","latitude":52.3824851,"longitude":13.3993839,"quantity":310,"location":"7365 Blue Bill Park Point"},
{"title":"Garlic - Elephant","description":"Phasellus id sapien in sapien iaculis congue. Vivamus metus arcu, adipiscing molestie, hendrerit at, vulputate vitae, nisl.","imageUrl":"http://dummyimage.com/300x300.png/dddddd/000000","latitude":-26.3018088,"longitude":-54.7192376,"quantity":311,"location":"413 Holy Cross Junction"},
{"title":"Soup V8 Roasted Red Pepper","description":"Aliquam augue quam, sollicitudin vitae, consectetuer eget, rutrum at, lorem. Integer tincidunt ante vel ipsum.","imageUrl":"http://dummyimage.com/300x300.png/cc0000/ffffff","latitude":7.088691,"longitude":79.999928,"quantity":312,"location":"933 Paget Drive"},
{"title":"Mix - Cocktail Strawberry Daiquiri","description":"Praesent id massa id nisl venenatis lacinia. Aenean sit amet justo. Morbi ut odio.","imageUrl":"http://dummyimage.com/300x300.png/dddddd/000000","latitude":29.97176,"longitude":122.323867,"quantity":313,"location":"088 Corry Junction"},
{"title":"Peach - Halves","description":"Suspendisse potenti.","imageUrl":"http://dummyimage.com/300x300.png/cc0000/ffffff","latitude":-25.50065,"longitude":30.9136062,"quantity":314,"location":"6422 Fair Oaks Alley"},
{"title":"Longos - Chicken Cordon Bleu","description":"Pellentesque viverra pede ac diam. Cras pellentesque volutpat dui.","imageUrl":"http://dummyimage.com/300x300.png/ff4444/ffffff","latitude":30.0444196,"longitude":31.2357116,"quantity":315,"location":"0814 Sunbrook Alley"},
{"title":"Ecolab - Solid Fusion","description":"Duis mattis egestas metus.","imageUrl":"http://dummyimage.com/300x300.png/ff4444/ffffff","latitude":-19.1097385,"longitude":-51.736543,"quantity":316,"location":"1402 North Point"},
{"title":"Juice - Grape, White","description":"Donec odio justo, sollicitudin ut, suscipit a, feugiat et, eros.","imageUrl":"http://dummyimage.com/300x300.png/5fa2dd/ffffff","latitude":-7.7623521,"longitude":112.9848168,"quantity":317,"location":"2188 Maple Way"},
{"title":"Cheese - Parmesan Grated","description":"Maecenas tristique, est et tempus semper, est quam pharetra magna, ac consequat metus sapien ut nunc. Vestibulum ante ipsum primis in faucibus orci luctus et ultrices posuere cubilia Curae; Mauris viverra diam vitae quam.","imageUrl":"http://dummyimage.com/300x300.png/cc0000/ffffff","latitude":-17.5495741,"longitude":-149.7905619,"quantity":318,"location":"54651 Gina Drive"},
{"title":"Chocolate - Liqueur Cups With Foil","description":"Donec semper sapien a libero. Nam dui.","imageUrl":"http://dummyimage.com/300x300.png/5fa2dd/ffffff","latitude":19.9699898,"longitude":105.6515167,"quantity":319,"location":"0969 Talisman Circle"},
{"title":"Coriander - Ground","description":"Aenean sit amet justo.","imageUrl":"http://dummyimage.com/300x300.png/ff4444/ffffff","latitude":-5.0980884,"longitude":-80.1657463,"quantity":320,"location":"43665 Anzinger Alley"},
{"title":"Marjoram - Dried, Rubbed","description":"Maecenas tincidunt lacus at velit. Vivamus vel nulla eget eros elementum pellentesque. Quisque porta volutpat erat.","imageUrl":"http://dummyimage.com/300x300.png/cc0000/ffffff","latitude":-34.4979812,"longitude":-56.0389343,"quantity":321,"location":"5691 John Wall Drive"},
{"title":"Swordfish Loin Portions","description":"Aliquam augue quam, sollicitudin vitae, consectetuer eget, rutrum at, lorem.","imageUrl":"http://dummyimage.com/300x300.png/5fa2dd/ffffff","latitude":32.0366011,"longitude":35.7288398,"quantity":322,"location":"152 Service Avenue"},
{"title":"Lotus Rootlets - Canned","description":"Nullam orci pede, venenatis non, sodales sed, tincidunt eu, felis. Fusce posuere felis sed lacus.","imageUrl":"http://dummyimage.com/300x300.png/ff4444/ffffff","latitude":8.5182123,"longitude":126.1195736,"quantity":323,"location":"46 Valley Edge Parkway"},
{"title":"Wine - Beringer Founders Estate","description":"Morbi vel lectus in quam fringilla rhoncus. Mauris enim leo, rhoncus sed, vestibulum sit amet, cursus id, turpis. Integer aliquet, massa id lobortis convallis, tortor risus dapibus augue, vel accumsan tellus nisi eu orci.","imageUrl":"http://dummyimage.com/300x300.png/ff4444/ffffff","latitude":13.0730815,"longitude":123.5982956,"quantity":324,"location":"0 Crescent Oaks Way"},
{"title":"Sterno - Chafing Dish Fuel","description":"Aenean auctor gravida sem. Praesent id massa id nisl venenatis lacinia.","imageUrl":"http://dummyimage.com/300x300.png/cc0000/ffffff","latitude":39.109563,"longitude":117.223371,"quantity":325,"location":"7 Roth Terrace"},
{"title":"Dragon Fruit","description":"In hac habitasse platea dictumst. Maecenas ut massa quis augue luctus tincidunt.","imageUrl":"http://dummyimage.com/300x300.png/dddddd/000000","latitude":23.1343601,"longitude":-82.3533266,"quantity":326,"location":"1490 Barby Road"},
{"title":"Pie Shell - 9","description":"Aliquam sit amet diam in magna bibendum imperdiet. Nullam orci pede, venenatis non, sodales sed, tincidunt eu, felis.","imageUrl":"http://dummyimage.com/300x300.png/cc0000/ffffff","latitude":48.890054,"longitude":2.2372792,"quantity":327,"location":"7 Main Junction"},
{"title":"Venison - Denver Leg Boneless","description":"Quisque id justo sit amet sapien dignissim vestibulum.","imageUrl":"http://dummyimage.com/300x300.png/cc0000/ffffff","latitude":39.2938634,"longitude":-8.6579077,"quantity":328,"location":"02360 Granby Circle"},
{"title":"Wine - Penfolds Koonuga Hill","description":"Sed sagittis.","imageUrl":"http://dummyimage.com/300x300.png/ff4444/ffffff","latitude":14.7512576,"longitude":121.0758172,"quantity":329,"location":"9714 Arapahoe Place"},
{"title":"Tilapia - Fillets","description":"Vivamus tortor. Duis mattis egestas metus. Aenean fermentum.","imageUrl":"http://dummyimage.com/300x300.png/ff4444/ffffff","latitude":22.884636,"longitude":113.454975,"quantity":330,"location":"86245 Lakeland Road"},
{"title":"Parsnip","description":"Duis aliquam convallis nunc. Proin at turpis a pede posuere nonummy. Integer non velit.","imageUrl":"http://dummyimage.com/300x300.png/5fa2dd/ffffff","latitude":17.5656036,"longitude":44.2289441,"quantity":331,"location":"864 Shopko Point"},
{"title":"Beef - Top Sirloin","description":"Morbi non quam nec dui luctus rutrum. Nulla tellus. In sagittis dui vel nisl.","imageUrl":"http://dummyimage.com/300x300.png/ff4444/ffffff","latitude":10.1769828,"longitude":38.1239492,"quantity":332,"location":"3 Stuart Plaza"},
{"title":"Lamb - Shoulder, Boneless","description":"Aenean auctor gravida sem. Praesent id massa id nisl venenatis lacinia. Aenean sit amet justo.","imageUrl":"http://dummyimage.com/300x300.png/ff4444/ffffff","latitude":11.864831,"longitude":121.878032,"quantity":333,"location":"387 Jay Pass"},
{"title":"Chocolate - Milk","description":"Ut tellus.","imageUrl":"http://dummyimage.com/300x300.png/dddddd/000000","latitude":36.041695,"longitude":14.220356,"quantity":334,"location":"928 Starling Center"},
{"title":"Vodka - Smirnoff","description":"Maecenas leo odio, condimentum id, luctus nec, molestie sed, justo.","imageUrl":"http://dummyimage.com/300x300.png/cc0000/ffffff","latitude":38.0974088,"longitude":140.6725677,"quantity":335,"location":"93 Golf Alley"},
{"title":"Ice Cream - Turtles Stick Bar","description":"Praesent blandit.","imageUrl":"http://dummyimage.com/300x300.png/5fa2dd/ffffff","latitude":34.151579,"longitude":100.447492,"quantity":336,"location":"9439 Troy Hill"},
{"title":"Wine - Placido Pinot Grigo","description":"Vivamus vel nulla eget eros elementum pellentesque. Quisque porta volutpat erat.","imageUrl":"http://dummyimage.com/300x300.png/dddddd/000000","latitude":-6.712398,"longitude":106.8945456,"quantity":337,"location":"163 Florence Street"},
{"title":"Flour - Cake","description":"Donec quis orci eget orci vehicula condimentum.","imageUrl":"http://dummyimage.com/300x300.png/dddddd/000000","latitude":30.202014,"longitude":103.710302,"quantity":338,"location":"95820 Commercial Avenue"},
{"title":"Ginger - Crystalized","description":"Vestibulum ante ipsum primis in faucibus orci luctus et ultrices posuere cubilia Curae; Mauris viverra diam vitae quam. Suspendisse potenti. Nullam porttitor lacus at turpis.","imageUrl":"http://dummyimage.com/300x300.png/ff4444/ffffff","latitude":9.8586845,"longitude":-84.0943743,"quantity":339,"location":"62875 Hagan Hill"},
{"title":"Flour - Strong","description":"Nulla neque libero, convallis eget, eleifend luctus, ultricies eu, nibh. Quisque id justo sit amet sapien dignissim vestibulum.","imageUrl":"http://dummyimage.com/300x300.png/dddddd/000000","latitude":63.2803099,"longitude":118.3618985,"quantity":340,"location":"355 Eggendart Terrace"},
{"title":"Brocolinni - Gaylan, Chinese","description":"In est risus, auctor sed, tristique in, tempus sit amet, sem.","imageUrl":"http://dummyimage.com/300x300.png/dddddd/000000","latitude":45.8010928,"longitude":15.7110481,"quantity":341,"location":"50 Troy Circle"},
{"title":"Wine - Kwv Chenin Blanc South","description":"Cras pellentesque volutpat dui. Maecenas tristique, est et tempus semper, est quam pharetra magna, ac consequat metus sapien ut nunc.","imageUrl":"http://dummyimage.com/300x300.png/dddddd/000000","latitude":-7.025202,"longitude":107.5259078,"quantity":342,"location":"4 Marcy Point"},
{"title":"Crab - Soft Shell","description":"Vestibulum rutrum rutrum neque.","imageUrl":"http://dummyimage.com/300x300.png/5fa2dd/ffffff","latitude":38.7683879,"longitude":139.9177739,"quantity":343,"location":"0 Luster Avenue"},
{"title":"Compound - Orange","description":"Nulla suscipit ligula in lacus.","imageUrl":"http://dummyimage.com/300x300.png/5fa2dd/ffffff","latitude":7.7102381,"longitude":3.9190062,"quantity":344,"location":"21 Helena Avenue"},
{"title":"Chocolate Eclairs","description":"Curabitur gravida nisi at nibh. In hac habitasse platea dictumst.","imageUrl":"http://dummyimage.com/300x300.png/5fa2dd/ffffff","latitude":49.3193375,"longitude":-124.3136411,"quantity":345,"location":"261 Boyd Hill"},
{"title":"Sauce - Plum","description":"Curabitur convallis.","imageUrl":"http://dummyimage.com/300x300.png/dddddd/000000","latitude":55.111901,"longitude":83.8869856,"quantity":346,"location":"7052 Spohn Pass"},
{"title":"Longan","description":"Cras non velit nec nisi vulputate nonummy. Maecenas tincidunt lacus at velit.","imageUrl":"http://dummyimage.com/300x300.png/dddddd/000000","latitude":31.6890813,"longitude":-4.1788953,"quantity":347,"location":"3325 Atwood Junction"},